{"version": 0.6, "generator": "Overpass API 0.7.61.5 4133829e", "osm3s": {"timestamp_osm_base": "2024-02-08T17:18:42Z", "copyright": "The data included in this document is from www.openstreetmap.org. The data is made available under ODbL."}, "elements": [{"type": "node", "id": 25475389, "lat": 51.5265807, "lon": -0.1292505, "tags": {"amenity": "cafe", "fixme": "not on FHRS", "name": "Woburn Cafe"}}, {"type": "node", "id": 25497832, "lat": 51.5247641, "lon": -0.1161125, "tags": {"addr:housenumber": "250", "amenity": "cafe", "name": "Cafe Angel"}}, {"type": "node", "id": 32843796, "lat": 51.5250758, "lon": -0.1349012}, {"type": "node", "id": 32843797, "lat": 51.5249361, "lon": -0.1351414}, {"type": "node", "id": 245052881, "lat": 51.5232699, "lon": -0.1079375}, {"type": "node", "id": 248074279, "lat": 51.5130377, "lon": -0.1043806}, {"type": "node", "id": 256497884, "lat": 51.5134527, "lon": -0.1165319, "tags": {"addr:city": "London", "addr:housename": "Columbia House", "addr:housenumber": "69", "addr:postcode": "WC2B 4RR", "addr:street": "Aldwych", "alt_name": "LSE Garrick", "amenity": "cafe", "fhrs:confidence_management": "0", "fhrs:hygiene": "0", "fhrs:id": "412911", "fhrs:local_authority_id": "00974/4000/0/001", "fhrs:rating": "5", "fhrs:structural": "5", "level": "0;-1", "name": "The Garrick", "opening_hours": "Mo-Fr 08:00-19:00", "operator": "London School of Economics and Political Science (LSE)", "postal_code": "WC2A 2AE", "smoking": "no", "source": "http://www.lse.ac.uk/intranet/LSEServices/cateringServices/restaurantsAndCafes/garrick.aspx", "website": "http://www.lse.ac.uk/intranet/LSEServices/cateringServices/restaurantsAndCafes/garrick.aspx", "wheelchair": "limited"}}, {"type": "node", "id": 257937398, "lat": 51.5233445, "lon": -0.1382427}, {"type": "node", "id": 281851003, "lat": 51.525503, "lon": -0.1538118, "tags": {"amenity": "cafe", "check_date": "2023-04-08", "created_by": "Potlatch 0.10b", "name": "The Tennis Centre"}}, {"type": "node", "id": 292050852, "lat": 51.5334901, "lon": -0.1113167}, {"type": "node", "id": 292902774, "lat": 51.5160108, "lon": -0.1437063}, {"type": "node", "id": 295971749, "lat": 51.507445, "lon": -0.122938, "tags": {"addr:city": "London", "amenity": "cafe", "brand": "Starbucks", "brand:wikidata": "Q37158", "brand:wikipedia": "en:Starbucks", "cuisine": "coffee_shop", "diet:vegetarian": "yes", "indoor_seating": "yes", "name": "Starbucks", "official_name": "Starbucks Coffee", "outdoor_seating": "no", "payment:american_express": "yes", "takeaway": "yes", "website": "https://www.starbucks.co.uk/", "wheelchair": "no"}}, {"type": "node", "id": 308839176, "lat": 51.5322165, "lon": -0.1064302, "tags": {"amenity": "cafe", "brand": "Starbucks", "brand:wikidata": "Q37158", "brand:wikipedia": "en:Starbucks", "check_date": "2023-02-10", "cuisine": "coffee_shop", "level": "0", "name": "Starbucks", "official_name": "Starbucks Coffee", "payment:credit_cards": "yes", "payment:debit_cards": "yes", "payment:mastercard": "yes", "payment:visa": "yes", "takeaway": "yes", "wheelchair": "yes"}}, {"type": "node", "id": 311877305, "lat": 51.5140415, "lon": -0.1256046, "tags": {"amenity": "cafe", "brand": "Costa", "brand:wikidata": "Q608845", "brand:wikipedia": "en:Costa Coffee", "cuisine": "coffee_shop", "name": "Costa", "takeaway": "yes"}}, {"type": "node", "id": 332041595, "lat": 51.520943, "lon": -0.1348273}, {"type": "node", "id": 332041596, "lat": 51.5209011, "lon": -0.1349343}, {"type": "node", "id": 332041597, "lat": 51.5209488, "lon": -0.1349825}, {"type": "node", "id": 332041599, "lat": 51.5209907, "lon": -0.1348755}, {"type": "node", "id": 332117592, "lat": 51.5277186, "lon": -0.1262783, "tags": {"amenity": "cafe", "check_date": "2023-12-07", "name": "Sandwich Street Kitchen"}}, {"type": "node", "id": 333167315, "lat": 51.5409182, "lon": -0.116985, "tags": {"amenity": "cafe", "name": "Tocca"}}, {"type": "node", "id": 333167321, "lat": 51.5409648, "lon": -0.1171608}, {"type": "node", "id": 334631073, "lat": 51.525232, "lon": -0.1216222, "tags": {"amenity": "cafe", "created_by": "Potlatch 0.10f"}}, {"type": "node", "id": 336053293, "lat": 51.532949, "lon": -0.1112097, "tags": {"addr:housenumber": "42a", "addr:street": "Penton Street", "amenity": "cafe", "name": "Cafe Olive"}}, {"type": "node", "id": 338463486, "lat": 51.5180367, "lon": -0.1117299}, {"type": "node", "id": 338463487, "lat": 51.5181778, "lon": -0.1131165}, {"type": "node", "id": 338505172, "lat": 51.5156884, "lon": -0.111853, "tags": {"amenity": "cafe", "brand": "Costa", "brand:wikidata": "Q608845", "brand:wikipedia": "en:Costa Coffee", "cuisine": "coffee_shop", "name": "Costa", "takeaway": "yes", "website": "https://www.costa.co.uk/"}}, {"type": "node", "id": 338507303, "lat": 51.5185773, "lon": -0.1191786}, {"type": "node", "id": 338507320, "lat": 51.5175712, "lon": -0.1200835, "tags": {"addr:city": "London", "addr:housenumber": "226", "addr:postcode": "WC1V 7DZ", "addr:street": "High Holborn", "alt_name": "Costa", "amenity": "cafe", "branch": "to Go", "brand": "Costa", "brand:wikidata": "Q608845", "brand:wikipedia": "en:Costa Coffee", "cuisine": "coffee_shop", "fhrs:id": "424924", "fhrs:local_authority_id": "40569", "name": "Costa", "opening_hours": "Mo-Fr 06:00-17:00; Sa,Su 06:30-16:00", "takeaway": "yes", "website": "https://www.costa.co.uk/"}}, {"type": "node", "id": 338507461, "lat": 51.5160246, "lon": -0.1190342, "tags": {"addr:housenumber": "48", "addr:street": "Kingsway", "amenity": "cafe", "cuisine": "italian", "name": "Guido's"}}, {"type": "node", "id": 338507462, "lat": 51.516089, "lon": -0.119735, "tags": {"addr:city": "London", "addr:housenumber": "77D", "addr:postcode": "WC2B 6SR", "addr:street": "Kingsway", "amenity": "cafe", "brand": "Caff\u00e8 Nero", "brand:wikidata": "Q675808", "brand:wikipedia": "en:Caff\u00e8 Nero", "contact:website": "https://caffenero.com/uk/store/kingsway-84/", "cuisine": "coffee_shop", "fhrs:id": "424716", "name": "Caff\u00e8 Nero", "outdoor_seating": "yes", "source:addr": "FHRS Open Data", "takeaway": "yes", "wheelchair": "yes"}}, {"type": "node", "id": 338507482, "lat": 51.51825, "lon": -0.120913, "tags": {"amenity": "cafe", "name": "Espresso House", "old_name": "Pret A Manger"}}, {"type": "node", "id": 339924936, "lat": 51.5089115, "lon": -0.127032}, {"type": "node", "id": 339924937, "lat": 51.50894, "lon": -0.1263209}, {"type": "node", "id": 339924938, "lat": 51.5087265, "lon": -0.1263208}, {"type": "node", "id": 339924939, "lat": 51.5087476, "lon": -0.1270319}, {"type": "node", "id": 339925156, "lat": 51.5083226, "lon": -0.1277985, "tags": {"addr:city": "London", "addr:housenumber": "38", "addr:street": "Trafalgar Square", "amenity": "cafe", "fhrs:confidence_management": "10", "fhrs:hygiene": "5", "fhrs:id": "414497", "fhrs:local_authority_id": "03/00342/COMM", "fhrs:rating": "4", "fhrs:structural": "5", "name": "Cafe On The Square", "postal_code": "SW1Y 5BJ", "source:addr": "FSA Food Hygiene Ratings Database", "source:postcode": "FSA Food Hygiene Ratings Database", "wheelchair": "yes"}}, {"type": "node", "id": 348440962, "lat": 51.5357114, "lon": -0.104013}, {"type": "node", "id": 348440968, "lat": 51.5357588, "lon": -0.1041633}, {"type": "node", "id": 348605977, "lat": 51.5357239, "lon": -0.1041839}, {"type": "node", "id": 348605980, "lat": 51.53568, "lon": -0.1040307}, {"type": "node", "id": 348871686, "lat": 51.5114642, "lon": -0.1327974, "tags": {"addr:housenumber": "50", "addr:street": "Shaftesbury Avenue", "amenity": "cafe", "indoor_seating": "yes", "name": "Caff\u00e9 Concerto", "note": "spelling is correct according to its website", "outdoor_seating": "yes", "website": "https://www.caffeconcerto.co.uk/restaurant/shaftesbury-avenue.html"}}, {"type": "node", "id": 351781117, "lat": 51.5123522, "lon": -0.121654}, {"type": "node", "id": 357595156, "lat": 51.5392594, "lon": -0.1065473}, {"type": "node", "id": 357595160, "lat": 51.5392305, "lon": -0.1063386}, {"type": "node", "id": 357595161, "lat": 51.5392079, "lon": -0.1065658}, {"type": "node", "id": 357595165, "lat": 51.539179, "lon": -0.106357}, {"type": "node", "id": 369857026, "lat": 51.5414956, "lon": -0.1169582}, {"type": "node", "id": 369857027, "lat": 51.5415424, "lon": -0.1169651}, {"type": "node", "id": 369857028, "lat": 51.5415611, "lon": -0.1168144}, {"type": "node", "id": 369857029, "lat": 51.5415103, "lon": -0.1166937}, {"type": "node", "id": 369857031, "lat": 51.5415802, "lon": -0.1167425}, {"type": "node", "id": 369857047, "lat": 51.5406612, "lon": -0.1168457}, {"type": "node", "id": 369857053, "lat": 51.5406741, "lon": -0.1166803}, {"type": "node", "id": 369857098, "lat": 51.5409613, "lon": -0.1172199}, {"type": "node", "id": 369857103, "lat": 51.5410123, "lon": -0.1172283}, {"type": "node", "id": 371050202, "lat": 51.5149955, "lon": -0.1240197, "tags": {"amenity": "cafe", "name": "The Poetry Cafe"}}, {"type": "node", "id": 371050486, "lat": 51.5147163, "lon": -0.1267904, "tags": {"amenity": "cafe", "name": "Monmouth Cafe"}}, {"type": "node", "id": 372519553, "lat": 51.5134023, "lon": -0.1312004, "tags": {"addr:city": "London", "addr:housenumber": "22", "addr:street": "Frith Street", "amenity": "cafe", "fhrs:confidence_management": "5", "fhrs:hygiene": "0", "fhrs:id": "413657", "fhrs:local_authority_id": "01333/0022/0/001", "fhrs:rating": "5", "fhrs:structural": "5", "name": "Bar Italia", "note": "Open 24h", "postal_code": "W1D 4RP", "source:addr": "FSA Food Hygiene Ratings Database", "source:postcode": "FSA Food Hygiene Ratings Database", "website": "http://www.baritaliasoho.co.uk"}}, {"type": "node", "id": 375932238, "lat": 51.5171359, "lon": -0.1238864}, {"type": "node", "id": 382185026, "lat": 51.5135672, "lon": -0.1348154}, {"type": "node", "id": 382512989, "lat": 51.5152192, "lon": -0.1352294}, {"type": "node", "id": 384525161, "lat": 51.5224191, "lon": -0.11431}, {"type": "node", "id": 384525164, "lat": 51.5224519, "lon": -0.1141926}, {"type": "node", "id": 384525167, "lat": 51.5224638, "lon": -0.1143442}, {"type": "node", "id": 384525170, "lat": 51.5224976, "lon": -0.1142338}, {"type": "node", "id": 384568855, "lat": 51.522407, "lon": -0.1141531}, {"type": "node", "id": 385562688, "lat": 51.5162714, "lon": -0.1336904, "tags": {"addr:city": "London", "addr:housenumber": "68", "addr:postcode": "W1D 1BN", "addr:street": "Oxford Street", "amenity": "cafe", "check_date": "2023-11-11", "name": "Cream Lab", "payment:cash": "yes", "payment:credit_cards": "yes", "payment:debit_cards": "yes", "wheelchair": "yes"}}, {"type": "node", "id": 385581979, "lat": 51.5097239, "lon": -0.1265323}, {"type": "node", "id": 388111146, "lat": 51.5252013, "lon": -0.1281271, "tags": {"addr:city": "London", "addr:housenumber": "7-12", "addr:postcode": "WC1H 9LT", "addr:street": "Tavistock Square", "amenity": "cafe", "brand": "Starbucks", "brand:wikidata": "Q37158", "brand:wikipedia": "en:Starbucks", "cuisine": "coffee_shop", "fhrs:id": "425694", "name": "Starbucks", "not:addr:postcode": "WC1H 9LY", "official_name": "Starbucks Coffee", "opening_hours": "Mo-Fr 06:00-20:00; Sa 07:00-20:00", "source:postcode": "other businesses at this address", "takeaway": "yes", "wheelchair": "yes", "wheelchair:description": "access through ramp to offices next door"}}, {"type": "node", "id": 388116719, "lat": 51.516674, "lon": -0.129274, "tags": {"amenity": "cafe", "brand": "Starbucks", "brand:wikidata": "Q37158", "brand:wikipedia": "en:Starbucks", "cuisine": "coffee_shop", "indoor_seating": "yes", "name": "Starbucks", "official_name": "Starbucks Coffee", "outdoor_seating": "yes", "payment:american_express": "yes", "takeaway": "yes", "wheelchair": "limited"}}, {"type": "node", "id": 389470644, "lat": 51.53813, "lon": -0.1388013}, {"type": "node", "id": 390157645, "lat": 51.5378239, "lon": -0.1395279}, {"type": "node", "id": 390924862, "lat": 51.5386802, "lon": -0.1432647}, {"type": "node", "id": 390925520, "lat": 51.5388668, "lon": -0.1431994}, {"type": "node", "id": 401529157, "lat": 51.5143608, "lon": -0.1294674, "tags": {"addr:housenumber": "106", "addr:street": "Charing Cross Road", "amenity": "cafe", "cuisine": "sandwich", "name": "Snack Bar & Caf\u00e9", "outdoor_seating": "yes", "wheelchair": "no"}}, {"type": "node", "id": 425164592, "lat": 51.530747, "lon": -0.1192818, "tags": {"amenity": "cafe", "name": "Coffee-Uni"}}, {"type": "node", "id": 425720564, "lat": 51.5319837, "lon": -0.1222953, "tags": {"addr:city": "London", "addr:housenumber": "26-30", "addr:postcode": "N1 9AA", "addr:street": "York Way", "amenity": "cafe", "brand": "Costa", "brand:wikidata": "Q608845", "brand:wikipedia": "en:Costa Coffee", "check_date": "2023-02-17", "cuisine": "coffee_shop", "diet:vegetarian": "yes", "fhrs:id": "1155392", "internet_access": "wlan", "internet_access:fee": "no", "name": "Costa", "opening_hours": "07:30-16:00", "operator": "Costa Coffee", "payment:credit_cards": "yes", "payment:debit_cards": "yes", "smoking": "outside", "takeaway": "yes"}}, {"type": "node", "id": 425720647, "lat": 51.5365629, "lon": -0.1218822, "tags": {"addr:city": "London", "addr:housenumber": "130-132", "addr:postcode": "N1 0AX", "addr:street": "York Way", "addr:suburb": "Islington", "amenity": "cafe", "fhrs:id": "416914", "name": "Cafe Express", "source:addr": "FHRS Open Data"}}, {"type": "node", "id": 425720656, "lat": 51.5367306, "lon": -0.1218949, "tags": {"addr:city": "London", "addr:housenumber": "138", "addr:postcode": "N1 0AX", "addr:street": "York Way", "amenity": "cafe", "name": "Venezia Cafe"}}, {"type": "node", "id": 427539146, "lat": 51.5309072, "lon": -0.1219655, "tags": {"addr:city": "London", "addr:housenumber": "296-298", "addr:postcode": "N1 9NR", "addr:street": "Pentonville Road", "addr:suburb": "Islington", "amenity": "cafe", "brand": "Starbucks", "brand:wikidata": "Q37158", "brand:wikipedia": "en:Starbucks", "cuisine": "coffee_shop", "fhrs:id": "417547", "name": "Starbucks", "name:ja": "\u30b9\u30bf\u30fc\u30d0\u30c3\u30af\u30b9", "official_name": "Starbucks Coffee", "source:addr": "FHRS Open Data", "takeaway": "yes"}}, {"type": "node", "id": 427539180, "lat": 51.5309452, "lon": -0.1214335, "tags": {"addr:city": "London", "addr:housenumber": "284", "addr:postcode": "N1 9NR", "addr:street": "Pentonville Road", "amenity": "cafe", "level": "0", "name": "Pompidou Cafe", "name:ja": "\u30dd\u30f3\u30d4\u30c9\u30a5\u30fc\u30fb\u30ab\u30d5\u30a7", "opening_hours": "Mo-Su 07:00-17:00"}}, {"type": "node", "id": 427571034, "lat": 51.532523, "lon": -0.1201318}, {"type": "node", "id": 427571036, "lat": 51.5325588, "lon": -0.1200829}, {"type": "node", "id": 427571064, "lat": 51.5334016, "lon": -0.1190561, "tags": {"amenity": "cafe", "name": "Sunrise Cafe"}}, {"type": "node", "id": 430435466, "lat": 51.529372, "lon": -0.1203346, "tags": {"addr:city": "London", "addr:housenumber": "279", "addr:postcode": "WC1X 8QF", "addr:street": "Gray's Inn Road", "amenity": "cafe", "name": "Tassli Coffee Bar", "source": "Walking Papers"}}, {"type": "node", "id": 430435515, "lat": 51.5296591, "lon": -0.1205585, "tags": {"addr:city": "London", "addr:housenumber": "293", "addr:postcode": "WC1X 8QF", "addr:street": "Gray's Inn Road", "amenity": "cafe", "diet:vegan": "yes", "diet:vegetarian": "yes", "name": "Cappadocia", "name:en": "Cappadocia", "source": "Walking papers"}}, {"type": "node", "id": 430437717, "lat": 51.5302213, "lon": -0.1211041, "tags": {"amenity": "cafe", "name": "Cafe Plaka"}}, {"type": "node", "id": 430439073, "lat": 51.5302974, "lon": -0.1212986, "tags": {"addr:city": "London", "addr:housenumber": "315", "addr:postcode": "WC1X 8PX", "addr:street": "Gray's Inn Road", "amenity": "cafe", "fhrs:id": "426418", "name": "Dream River Cafe", "source": "Walking papers", "source:addr": "FHRS Open Data"}}, {"type": "node", "id": 447871114, "lat": 51.5179303, "lon": -0.1253825}, {"type": "node", "id": 447874478, "lat": 51.5141088, "lon": -0.1312706}, {"type": "node", "id": 452149625, "lat": 51.5142471, "lon": -0.1596019, "tags": {"addr:city": "London", "addr:housenumber": "15", "addr:postcode": "W1H 7AS", "addr:street": "Great Cumberland Place", "amenity": "cafe", "brand": "Patisserie Valerie", "brand:wikidata": "Q22101966", "brand:wikipedia": "en:Patisserie Valerie", "cuisine": "coffee_shop", "fhrs:confidence_management": "0", "fhrs:hygiene": "0", "fhrs:id": "414765", "fhrs:local_authority_id": "11/00155/COMM", "fhrs:rating": "5", "fhrs:structural": "5", "name": "Patisserie Valerie", "source:addr": "FSA Food Hygiene Ratings Database", "source:postcode": "FSA Food Hygiene Ratings Database", "takeaway": "yes", "website": "https://www.patisserie-valerie.co.uk/marble-arch.aspx"}}, {"type": "node", "id": 452235961, "lat": 51.5124102, "lon": -0.1438591}, {"type": "node", "id": 456213965, "lat": 51.5102976, "lon": -0.1391473, "tags": {"addr:city": "London", "addr:housenumber": "6A", "addr:postcode": "W1S 3HF", "addr:street": "Vigo Street", "amenity": "cafe", "brand": "Starbucks", "brand:wikidata": "Q37158", "brand:wikipedia": "en:Starbucks", "check_date": "2023-08-13", "cuisine": "coffee_shop", "name": "Starbucks", "official_name": "Starbucks Coffee", "opening_hours": "Mo-Fr 07:00-20:00; Sa 07:30-20:30,09:00-20:00", "operator": "Starbucks", "payment:american_express": "yes", "takeaway": "yes"}}, {"type": "node", "id": 456277408, "lat": 51.5106844, "lon": -0.1421362, "tags": {"addr:city": "London", "addr:housenumber": "15B", "addr:postcode": "W1S 4JZ", "addr:street": "Clifford Street", "amenity": "cafe", "cuisine": "sandwich", "name": "Morris\u2019s", "phone": "+44 20 7734 6930"}}, {"type": "node", "id": 456718344, "lat": 51.5112419, "lon": -0.1413145, "tags": {"addr:city": "London", "addr:housenumber": "14", "addr:postcode": "W1S 2JR", "addr:street": "Old Burlington Street", "amenity": "cafe", "contact:instagram": "nkoracoffee", "name": "Nkora", "opening_hours": "Mo-Fr 07:00-18:30; Sa 07:00-18:00; Su 08:00-16:00", "phone": "+44 20 7734 6177", "website": "http://nkora.co.uk"}}, {"type": "node", "id": 462025210, "lat": 51.5133351, "lon": -0.1501507, "tags": {"addr:housenumber": "18-20", "addr:street": "Weighhouse Street", "amenity": "cafe", "name": "Deliciously Ella", "website": "https://deliciouslyella.com/our-delis/weighhouse-street/"}}, {"type": "node", "id": 462025234, "lat": 51.5130973, "lon": -0.1506616, "tags": {"addr:city": "London", "addr:housenumber": "79", "addr:postcode": "W1K 5AS", "addr:street": "Duke Street", "amenity": "cafe", "name": "Euro Coffee House", "operator": "H.R. Higgins (Coffee-Man) Ltd.", "website": "https://www.hrhiggins.co.uk/", "wheelchair": "yes"}}, {"type": "node", "id": 472663741, "lat": 51.5129814, "lon": -0.1560993, "tags": {"addr:housenumber": "115c", "addr:street": "North Row", "amenity": "cafe", "name": "Cardinals of Mayfair"}}, {"type": "node", "id": 475870035, "lat": 51.5201171, "lon": -0.1051862}, {"type": "node", "id": 484618786, "lat": 51.525326, "lon": -0.1099599}, {"type": "node", "id": 494923305, "lat": 51.51997, "lon": -0.1306368}, {"type": "node", "id": 496471919, "lat": 51.5190091, "lon": -0.1421165}, {"type": "node", "id": 496471929, "lat": 51.5200148, "lon": -0.1425752}, {"type": "node", "id": 496471931, "lat": 51.520041, "lon": -0.1424267}, {"type": "node", "id": 496471937, "lat": 51.5200727, "lon": -0.1425989}, {"type": "node", "id": 496702563, "lat": 51.5180746, "lon": -0.1393612}, {"type": "node", "id": 496702573, "lat": 51.5182804, "lon": -0.1403442}, {"type": "node", "id": 496702580, "lat": 51.518312, "lon": -0.1401768}, {"type": "node", "id": 496704394, "lat": 51.5165101, "lon": -0.140229}, {"type": "node", "id": 496704395, "lat": 51.5164007, "lon": -0.1401788}, {"type": "node", "id": 497185846, "lat": 51.5223524, "lon": -0.1358175}, {"type": "node", "id": 497233180, "lat": 51.5144294, "lon": -0.1426422}, {"type": "node", "id": 498252058, "lat": 51.5234666, "lon": -0.1382452}, {"type": "node", "id": 498252480, "lat": 51.5233126, "lon": -0.1371012}, {"type": "node", "id": 498848051, "lat": 51.5143076, "lon": -0.1341715}, {"type": "node", "id": 498848066, "lat": 51.5142127, "lon": -0.1341039}, {"type": "node", "id": 510785414, "lat": 51.5218355, "lon": -0.1200728, "tags": {"amenity": "cafe", "name": "The Espresso Room", "wheelchair": "no"}}, {"type": "node", "id": 529722121, "lat": 51.5200442, "lon": -0.1050046}, {"type": "node", "id": 530980388, "lat": 51.5233067, "lon": -0.1078106}, {"type": "node", "id": 530980389, "lat": 51.523249, "lon": -0.1079754}, {"type": "node", "id": 534993861, "lat": 51.5155998, "lon": -0.1232906}, {"type": "node", "id": 538082755, "lat": 51.5197955, "lon": -0.107146}, {"type": "node", "id": 538083347, "lat": 51.519819, "lon": -0.1069608}, {"type": "node", "id": 538083624, "lat": 51.5195248, "lon": -0.1072401}, {"type": "node", "id": 540457290, "lat": 51.5122368, "lon": -0.1200571}, {"type": "node", "id": 549122998, "lat": 51.5193252, "lon": -0.1075476, "tags": {"amenity": "cafe", "name": "La Forchetta"}}, {"type": "node", "id": 549151839, "lat": 51.5195151, "lon": -0.1073074}, {"type": "node", "id": 549171171, "lat": 51.5198485, "lon": -0.1071526, "tags": {"amenity": "cafe", "name": "Bicafe"}}, {"type": "node", "id": 554974745, "lat": 51.52996, "lon": -0.1244199, "tags": {"amenity": "cafe", "brand": "Costa", "brand:wikidata": "Q608845", "brand:wikipedia": "en:Costa Coffee", "cuisine": "coffee_shop", "name": "Costa", "opening_hours": "Mo-Fr 06:00-21:00, Sa,Su 07:00-20:00", "payment:lightning": "yes", "takeaway": "yes", "wheelchair": "limited"}}, {"type": "node", "id": 559520875, "lat": 51.5072772, "lon": -0.1283651, "tags": {"addr:city": "London", "addr:housename": "Serck House", "addr:housenumber": "60-61", "addr:postcode": "WC2N 5DS", "addr:street": "Trafalgar Square", "amenity": "cafe", "brand": "Caff\u00e8 Nero", "brand:wikidata": "Q675808", "brand:wikipedia": "en:Caff\u00e8 Nero", "check_date": "2023-09-23", "contact:website": "https://caffenero.com/uk/store/trafalgar-sq-415/", "cuisine": "coffee_shop", "fhrs:id": "411203", "level": "0", "name": "Caff\u00e8 Nero", "name:ja": "\u30ab\u30d5\u30a7\u30fb\u30cd\u30ed", "payment:american_express": "yes", "payment:contactless": "yes", "payment:credit_cards": "yes", "source:addr": "FHRS Open Data", "takeaway": "yes", "wheelchair": "no"}}, {"type": "node", "id": 565439416, "lat": 51.5143713, "lon": -0.1096614, "tags": {"amenity": "cafe", "name": "Salade", "postal_code": "EC4A 1BT"}}, {"type": "node", "id": 565470131, "lat": 51.5136314, "lon": -0.1300077}, {"type": "node", "id": 565470140, "lat": 51.512986, "lon": -0.131919}, {"type": "node", "id": 565564943, "lat": 51.517239, "lon": -0.1353171}, {"type": "node", "id": 566144426, "lat": 51.5194765, "lon": -0.1374639}, {"type": "node", "id": 568541033, "lat": 51.5072579, "lon": -0.1228872, "tags": {"addr:city": "London", "amenity": "cafe", "brand": "Costa", "brand:wikidata": "Q608845", "brand:wikipedia": "en:Costa Coffee", "cuisine": "coffee_shop", "name": "Costa", "outdoor_seating": "yes", "takeaway": "yes", "wheelchair": "yes"}}, {"type": "node", "id": 568542316, "lat": 51.507051, "lon": -0.122338, "tags": {"amenity": "cafe", "brand": "Starbucks", "brand:wikidata": "Q37158", "brand:wikipedia": "en:Starbucks", "cuisine": "coffee_shop", "name": "Starbucks", "official_name": "Starbucks Coffee", "payment:american_express": "yes", "takeaway": "yes"}}, {"type": "node", "id": 573320904, "lat": 51.5081363, "lon": -0.1244617, "tags": {"addr:city": "London", "addr:housename": "Charing Cross Station", "addr:postcode": "WC2N 5HS", "addr:suburb": "Strand", "addr:unit": "4", "air_conditioning": "no", "amenity": "cafe", "bar": "no", "check_date": "2023-09-23", "cuisine": "pie", "diet:vegan": "yes", "diet:vegetarian": "yes", "drive_through": "no", "fhrs:id": "428156", "highchair": "no", "level": "0", "name": "The Pasty Shop", "outdoor_seating": "no", "payment:american_express": "yes", "reservation": "no", "smoking": "no", "source": "Network Rail", "source:addr": "FHRS Open Data", "takeaway": "only", "toilets": "no", "toilets:wheelchair": "no", "wheelchair": "yes"}}, {"type": "node", "id": 573320919, "lat": 51.5080331, "lon": -0.1252987, "tags": {"amenity": "cafe", "brand": "Costa", "brand:wikidata": "Q608845", "brand:wikipedia": "en:Costa Coffee", "check_date": "2022-10-28", "cuisine": "coffee_shop", "level": "0", "name": "Costa", "outdoor_seating": "yes", "payment:american_express": "yes", "source": "Network Rail", "takeaway": "yes"}}, {"type": "node", "id": 576981455, "lat": 51.5252955, "lon": -0.1097767}, {"type": "node", "id": 582630405, "lat": 51.5148343, "lon": -0.1407765, "tags": {"addr:city": "London", "addr:housenumber": "11", "addr:postcode": "W1F 7TH", "addr:street": "Argyll Street", "amenity": "cafe", "brand": "Costa", "brand:wikidata": "Q608845", "brand:wikipedia": "en:Costa Coffee", "cuisine": "coffee_shop", "fhrs:confidence_management": "5", "fhrs:hygiene": "5", "fhrs:id": "413209", "fhrs:local_authority_id": "01092/0011/0/001", "fhrs:rating": "5", "fhrs:structural": "5", "name": "Costa", "source:postcode": "FSA Food Hygiene Ratings Database", "takeaway": "yes", "toilets:wheelchair": "yes", "wheelchair": "limited"}}, {"type": "node", "id": 582793582, "lat": 51.517546, "lon": -0.1426726, "tags": {"addr:housenumber": "1-2", "addr:street": "Langham Place", "amenity": "cafe", "brand": "Starbucks", "brand:wikidata": "Q37158", "brand:wikipedia": "en:Starbucks", "check_date": "2024-01-12", "cuisine": "coffee_shop", "diet:vegetarian": "yes", "indoor_seating": "yes", "name": "Starbucks", "official_name": "Starbucks Coffee", "outdoor_seating": "yes", "takeaway": "yes"}}, {"type": "node", "id": 584433958, "lat": 51.5257934, "lon": -0.1103882}, {"type": "node", "id": 588034827, "lat": 51.5074755, "lon": -0.1268118, "tags": {"amenity": "cafe", "brand": "Costa", "brand:wikidata": "Q608845", "brand:wikipedia": "en:Costa Coffee", "cuisine": "coffee_shop", "name": "Costa", "name:ja": "\u30b3\u30b9\u30bf", "takeaway": "yes", "toilets": "yes", "toilets:wheelchair": "yes", "wheelchair": "yes"}}, {"type": "node", "id": 594876703, "lat": 51.511417, "lon": -0.1366962, "tags": {"addr:city": "London", "addr:housenumber": "14/14A", "addr:postcode": "W1F 9JG", "addr:street": "Golden Square", "amenity": "cafe", "fhrs:confidence_management": "0", "fhrs:hygiene": "0", "fhrs:id": "414641", "fhrs:local_authority_id": "07/00004/COMM", "fhrs:rating": "5", "fhrs:structural": "5", "name": "Nordic Bakery", "opening_hours": "Mo-Su 09:00-19:00", "phone": "+44 20 3230 1077", "source:addr": "FSA Food Hygiene Ratings Database", "website": "https://www.nordicbakery.com/", "wheelchair": "yes"}}, {"type": "node", "id": 595301296, "lat": 51.509704, "lon": -0.133266, "tags": {"addr:city": "London", "addr:housenumber": "45", "addr:postcode": "SW1Y 4SE", "addr:street": "Haymarket", "amenity": "cafe", "description": "Opening soon", "fhrs:id": "414755", "indoor_seating": "yes", "name": "Caffee Concerto", "outdoor_seating": "yes", "source:addr": "FHRS Open Data", "wheelchair": "yes"}}, {"type": "node", "id": 595303835, "lat": 51.5094715, "lon": -0.1323526, "tags": {"addr:city": "London", "addr:housenumber": "27", "addr:postcode": "SW1Y 4SP", "addr:street": "Haymarket", "amenity": "cafe", "brand": "Caff\u00e8 Nero", "brand:wikidata": "Q675808", "brand:wikipedia": "en:Caff\u00e8 Nero", "contact:website": "https://caffenero.com/uk/store/haymarket-287/", "cuisine": "coffee_shop", "fhrs:id": "410889", "internet_access": "wlan", "name": "Caff\u00e8 Nero", "not:addr:postcode": "SW1Y 4ES", "source:addr": "FSA Food Hygiene Ratings Database", "source:addr:postcode": "code-point_open", "source:internet_access": "survey", "takeaway": "yes"}}, {"type": "node", "id": 598066008, "lat": 51.5313062, "lon": -0.1247669}, {"type": "node", "id": 600916912, "lat": 51.5143318, "lon": -0.1225202}, {"type": "node", "id": 600923903, "lat": 51.5112207, "lon": -0.1198525, "tags": {"amenity": "cafe", "brand": "Starbucks", "brand:wikidata": "Q37158", "brand:wikipedia": "en:Starbucks", "cuisine": "coffee_shop", "name": "Starbucks", "official_name": "Starbucks Coffee", "payment:american_express": "yes", "takeaway": "yes", "wheelchair": "no"}}, {"type": "node", "id": 603113483, "lat": 51.513513, "lon": -0.127203, "tags": {"amenity": "cafe", "name": "La Bottega", "outdoor_seating": "no"}}, {"type": "node", "id": 603113677, "lat": 51.5136786, "lon": -0.1272171}, {"type": "node", "id": 603128624, "lat": 51.5114893, "lon": -0.1276746, "tags": {"addr:city": "London", "addr:housenumber": "32", "addr:postcode": "WC2H 7AD", "addr:street": "Cranbourn Street", "amenity": "cafe", "brand": "Caff\u00e8 Nero", "brand:wikidata": "Q675808", "brand:wikipedia": "en:Caff\u00e8 Nero", "contact:website": "https://caffenero.com/uk/store/cranbourn-st-13/", "cuisine": "coffee_shop", "fhrs:confidence_management": "5", "fhrs:hygiene": "10", "fhrs:id": "428167", "fhrs:local_authority_id": "01652/0032/0/000", "fhrs:rating": "2", "fhrs:structural": "15", "internet_access": "wlan", "name": "Caff\u00e8 Nero", "source:addr": "FSA Food Hygiene Ratings Database", "source:internet_access": "survey", "source:postcode": "FSA Food Hygiene Ratings Database", "takeaway": "yes", "wheelchair": "yes"}}, {"type": "node", "id": 616691983, "lat": 51.5119536, "lon": -0.1294878}, {"type": "node", "id": 618688769, "lat": 51.5172685, "lon": -0.1431315}, {"type": "node", "id": 621185183, "lat": 51.5210599, "lon": -0.108788, "tags": {"amenity": "cafe", "name": "Cafe Mano"}}, {"type": "node", "id": 621185189, "lat": 51.521416, "lon": -0.1088769, "tags": {"amenity": "cafe", "description": "sandwich bar cafe", "name": "Tuffo's Place"}}, {"type": "node", "id": 621771171, "lat": 51.5317157, "lon": -0.1046939, "tags": {"addr:city": "London", "addr:housenumber": "391", "addr:postcode": "EC1V 1NE", "addr:street": "City Road", "addr:suburb": "Islington", "amenity": "cafe", "fhrs:id": "776684", "level": "0", "name": "Duncan Terrace Cafe", "opening_hours": "Mo-Fr 07:00-17:00", "organic": "yes", "outdoor_seating": "yes", "source:addr": "FHRS Open Data", "website": "https://www.duncanterrace.co.uk/"}}, {"type": "node", "id": 623362924, "lat": 51.5089238, "lon": -0.1363655}, {"type": "node", "id": 623428350, "lat": 51.5159727, "lon": -0.1439257}, {"type": "node", "id": 624043344, "lat": 51.511855, "lon": -0.1313096, "tags": {"addr:city": "London", "addr:country": "GB", "addr:housenumber": "3", "addr:postcode": "W1D 6AU", "addr:street": "Macclesfield Street", "amenity": "cafe", "cuisine": "dessert", "description": "South East Asian themed soft drinks and desserts.", "level": "1", "name": "Candy Cafe", "note": "On first floor. Entrance to stairs is to the left of Leong's Legend.", "phone": "+44 20 7434 4581", "source": "survey; Bing 2012", "source:addr:postcode": "signage", "survey:date": "2014-08-23", "website": "https://www.candycafe.co.uk/"}}, {"type": "node", "id": 635756147, "lat": 51.5250152, "lon": -0.1348982}, {"type": "node", "id": 638925838, "lat": 51.532188, "lon": -0.105164, "tags": {"addr:city": "London", "addr:housenumber": "3", "addr:postcode": "EC1V 1NQ", "addr:street": "Torrens Street", "amenity": "cafe", "cuisine": "coffee_shop", "name": "Candid Cafe", "note": "sign outside says \"vegetarian menu\" but does not say *only* vegetarian Website mentions non-vegetarian food too. Full menu not on web site", "opening_hours": "Mo-Sa 12:00-22:00; Su 12:00-17:00", "phone": "+44 20 7278 9368", "website": "https://candidarts.wordpress.com/cafe/", "wheelchair": "no"}}, {"type": "node", "id": 639112840, "lat": 51.5132127, "lon": -0.1313047}, {"type": "node", "id": 643312445, "lat": 51.5178546, "lon": -0.1134709, "tags": {"addr:housenumber": "67", "addr:street": "Chancery Lane", "amenity": "cafe", "name": "Wendells"}}, {"type": "node", "id": 644625847, "lat": 51.5252191, "lon": -0.1327573, "tags": {"addr:city": "London", "addr:floor": "Upper Ground", "addr:housenumber": "15", "addr:postcode": "WC1H 0AY", "addr:street": "Gordon Street", "amenity": "cafe", "diet:vegan": "no", "diet:vegetarian": "yes", "name": "Bloomsbury Caf\u00e9", "opening_hours": "Mo-Fr 09:00-16:00", "operator": "Students' Union UCL", "toilets": "yes", "toilets:wheelchair": "yes", "website": "https://studentsunionucl.org/eat-drink-shop/cafes/bloomsbury-cafe", "wheelchair": "yes"}}, {"type": "node", "id": 646745933, "lat": 51.508814, "lon": -0.1443658}, {"type": "node", "id": 647004373, "lat": 51.5322247, "lon": -0.1264865, "tags": {"amenity": "cafe", "brand": "Starbucks", "brand:wikidata": "Q37158", "brand:wikipedia": "en:Starbucks", "check_date": "2023-11-23", "cuisine": "coffee_shop", "indoor_seating": "yes", "level": "0", "name": "Starbucks", "official_name": "Starbucks Coffee", "outdoor_seating": "no", "payment:cash": "yes", "payment:contactless": "yes", "payment:credit_cards": "yes", "payment:debit_cards": "yes", "payment:mastercard": "yes", "payment:visa": "yes", "takeaway": "yes", "wheelchair": "yes"}}, {"type": "node", "id": 647052117, "lat": 51.5319049, "lon": -0.1263153, "tags": {"amenity": "cafe", "building:levels": "0", "check_date": "2023-11-10", "diet:vegetarian": "yes", "email": "stpancras@benugo.com", "indoor_seating": "yes", "level": "0", "name": "Benugo", "opening_hours": "07:00-21:00", "organic": "only", "outdoor_seating": "no", "website": "https://www.benugo.com/sites/cafes/benugo-st-pancras/", "wheelchair": "yes"}}, {"type": "node", "id": 647866847, "lat": 51.518443, "lon": -0.121044, "tags": {"amenity": "cafe", "brand": "Patisserie Valerie", "brand:wikidata": "Q22101966", "brand:wikipedia": "en:Patisserie Valerie", "cuisine": "coffee_shop", "name": "Patisserie Valerie", "takeaway": "yes"}}, {"type": "node", "id": 647875599, "lat": 51.5208569, "lon": -0.1164931, "tags": {"addr:city": "London", "addr:housenumber": "54", "addr:postcode": "WC1X 8NW", "addr:street": "Theobalds Road", "amenity": "cafe", "brand": "Caff\u00e8 Nero", "brand:wikidata": "Q675808", "brand:wikipedia": "en:Caff\u00e8 Nero", "contact:website": "https://caffenero.com/uk/store/theobalds-rd-367/", "cuisine": "coffee_shop", "fhrs:id": "425543", "name": "Caff\u00e8 Nero", "opening_hours": "Mo-Fr 07:00-19:00, Sa 07:30-18:00, Su 07:30-17:30", "outdoor_seating": "yes", "takeaway": "yes", "wheelchair": "limited"}}, {"type": "node", "id": 653124873, "lat": 51.5087508, "lon": -0.1254965, "tags": {"addr:city": "London", "addr:housenumber": "448", "addr:postcode": "WC2R 0QU", "addr:street": "Strand", "addr:suburb": "Strand", "amenity": "cafe", "check_date": "2023-09-23", "fhrs:id": "1454823", "level": "0", "name": "Social Bite", "payment:american_express": "yes", "source:addr": "FHRS Open Data", "wheelchair": "no"}}, {"type": "node", "id": 661152752, "lat": 51.5084346, "lon": -0.1321275, "tags": {"addr:city": "London", "addr:housenumber": "15", "addr:postcode": "SW1Y 4QU", "addr:street": "Charles II Street", "amenity": "cafe", "cuisine": "noodle", "fhrs:id": "568272", "name": "The Borough Barista", "source:addr": "FHRS Open Data", "wheelchair": "no"}}, {"type": "node", "id": 664966075, "lat": 51.5195479, "lon": -0.135626, "tags": {"addr:housenumber": "44", "addr:street": "Charlotte Street", "amenity": "cafe", "brand": "Blank Street Coffee", "brand:wikidata": "Q114792509", "cuisine": "coffee_shop", "fhrs:id": "1500544", "indoor_seating": "yes", "name": "Blank Street Coffee", "outdoor_seating": "yes", "takeaway": "yes"}}, {"type": "node", "id": 669891136, "lat": 51.5294047, "lon": -0.1296186, "tags": {"addr:city": "London", "addr:housenumber": "44", "addr:postcode": "NW1 1JB", "addr:street": "Chalton Street", "amenity": "cafe", "fhrs:id": "426152", "name": "Pinner Cafe"}}, {"type": "node", "id": 670639989, "lat": 51.5127511, "lon": -0.1341537}, {"type": "node", "id": 674922785, "lat": 51.5358233, "lon": -0.1395423}, {"type": "node", "id": 675866067, "lat": 51.5084503, "lon": -0.1369125, "tags": {"addr:city": "London", "addr:housenumber": "35", "addr:postcode": "SW1Y 6DT", "addr:street": "Jermyn Street", "amenity": "cafe", "brand": "Redemption Roasters", "brand:wikidata": "Q111657079", "cuisine": "coffee_shop", "name": "Redemption Roasters", "source:addr": "FSA Food Hygiene Ratings Database", "source:postcode": "FSA Food Hygiene Ratings Database", "takeaway": "yes", "wheelchair": "no"}}, {"type": "node", "id": 678725269, "lat": 51.5192812, "lon": -0.1090485}, {"type": "node", "id": 681200105, "lat": 51.5282488, "lon": -0.1336117, "tags": {"addr:city": "London", "addr:housename": "Euston Station", "addr:postcode": "NW1 2HS", "addr:street": "Eversholt Street", "amenity": "cafe", "cuisine": "coffee_shop", "diet:vegan": "yes", "diet:vegetarian": "yes", "indoor_seating": "no", "level": "0", "name": "Panopolis", "outdoor_seating": "no", "payment:credit_cards": "yes", "payment:debit_cards": "yes", "source:addr": "FHRS Open Data", "takeaway": "only"}}, {"type": "node", "id": 688060582, "lat": 51.5128593, "lon": -0.1381313}, {"type": "node", "id": 690721437, "lat": 51.5069374, "lon": -0.1459816, "tags": {"addr:housenumber": "50-52", "addr:street": "Curzon Street", "amenity": "cafe", "brand": "Caff\u00e8 Nero", "brand:wikidata": "Q675808", "brand:wikipedia": "en:Caff\u00e8 Nero", "contact:website": "https://caffenero.com/uk/store/curzon-st-96/", "cuisine": "coffee_shop", "name": "Caff\u00e8 Nero", "phone": "+44 20 7409 0595", "takeaway": "yes"}}, {"type": "node", "id": 691084094, "lat": 51.5158716, "lon": -0.1406567, "tags": {"addr:city": "London", "addr:housenumber": "4", "addr:postcode": "W1W 8QJ", "addr:street": "Great Portland Street", "amenity": "cafe", "brand": "Costa", "brand:wikidata": "Q608845", "brand:wikipedia": "en:Costa Coffee", "cuisine": "coffee_shop", "fhrs:confidence_management": "0", "fhrs:hygiene": "5", "fhrs:id": "411903", "fhrs:local_authority_id": "00603/0004/1/005", "fhrs:rating": "5", "fhrs:structural": "5", "indoor_seating": "yes", "name": "Costa", "opening_hours": "Mo-Fr 06:00-23:00; Sa 07:00-23:00; Su 07:30-21:00", "outdoor_seating": "yes", "source:postcode": "survey", "takeaway": "yes", "website": "https://www.costa.co.uk/", "wheelchair": "no"}}, {"type": "node", "id": 691114553, "lat": 51.5182443, "lon": -0.141725, "tags": {"amenity": "cafe", "indoor_seating": "yes", "name": "GT Corner", "outdoor_seating": "yes"}}, {"type": "node", "id": 691637963, "lat": 51.511192, "lon": -0.127852, "tags": {"amenity": "cafe", "name": "Cafe Koha", "wheelchair": "limited"}}, {"type": "node", "id": 692129366, "lat": 51.5181547, "lon": -0.1402859}, {"type": "node", "id": 692129387, "lat": 51.5181203, "lon": -0.1394034}, {"type": "node", "id": 692190688, "lat": 51.5130057, "lon": -0.1318284}, {"type": "node", "id": 693187109, "lat": 51.5092786, "lon": -0.1365251}, {"type": "node", "id": 696746887, "lat": 51.5223949, "lon": -0.1322463, "tags": {"addr:city": "London", "addr:housenumber": "82", "addr:postcode": "WC1E 6EG", "addr:street": "Gower Street", "amenity": "cafe", "check_date": "2022-12-09", "fhrs:id": "947352", "indoor_seating": "yes", "name": "Dillons", "outdoor_seating": "yes", "source:addr": "FHRS Open Data", "toilets:wheelchair": "yes", "wheelchair": "yes", "wheelchair:description": "Toilet located on basement level (Waterstones)."}}, {"type": "node", "id": 698447397, "lat": 51.5228705, "lon": -0.132082, "tags": {"amenity": "cafe", "check_date": "2023-03-29", "diet:vegan": "no", "diet:vegetarian": "yes", "name": "Engineering Cafe", "opening_hours": "\"Term Time: Mon-Fri 08:00-18:00 Out of Term: 08:30-16:00\"", "wheelchair": "yes"}}, {"type": "node", "id": 698660644, "lat": 51.5174807, "lon": -0.1263124}, {"type": "node", "id": 699796655, "lat": 51.5176113, "lon": -0.1339168, "tags": {"addr:city": "London", "addr:housenumber": "23", "addr:postcode": "W1T 1HZ", "addr:street": "Rathbone Place", "amenity": "cafe", "name": "Pisqu", "opening_hours": "Mo-Fr 07:00-18:00; Sa 08:00-18:00", "outdoor_seating": "yes", "phone": "+44 20 7436 6123", "website": "http://www.russiespressobar.co.uk/", "wheelchair": "no"}}, {"type": "node", "id": 699796657, "lat": 51.5177937, "lon": -0.1341769}, {"type": "node", "id": 699822214, "lat": 51.5178159, "lon": -0.1344133}, {"type": "node", "id": 701600713, "lat": 51.5131542, "lon": -0.1376484}, {"type": "node", "id": 701600714, "lat": 51.5131392, "lon": -0.1375664}, {"type": "node", "id": 701600718, "lat": 51.5132041, "lon": -0.1376888}, {"type": "node", "id": 701600723, "lat": 51.5132523, "lon": -0.1376604}, {"type": "node", "id": 703360692, "lat": 51.5180533, "lon": -0.1171093, "tags": {"amenity": "cafe", "name": "apostrophe"}}, {"type": "node", "id": 703362198, "lat": 51.5178874, "lon": -0.1178574, "tags": {"addr:housenumber": "90", "addr:street": "High Holborn", "amenity": "cafe", "brand": "Starbucks", "brand:wikidata": "Q37158", "brand:wikipedia": "en:Starbucks", "cuisine": "coffee_shop", "name": "Starbucks", "official_name": "Starbucks Coffee", "takeaway": "yes"}}, {"type": "node", "id": 720890821, "lat": 51.5241198, "lon": -0.1333457, "tags": {"addr:city": "London", "addr:place": "South Quad, UCL", "addr:postcode": "WC1E 6BT", "addr:street": "Gower Street", "amenity": "cafe", "diet:vegan": "no", "diet:vegetarian": "yes", "name": "Print Room Caf\u00e9", "opening_hours": "Mo-Fr 08:00-20:00", "operator": "Students' Union UCL", "toilets:wheelchair": "no", "website": "https://studentsunionucl.org/eat-drink-shop/cafes/print-room-cafe", "wheelchair": "yes"}}, {"type": "node", "id": 731010520, "lat": 51.5239759, "lon": -0.1376315}, {"type": "node", "id": 734745704, "lat": 51.5207625, "lon": -0.1167654, "tags": {"amenity": "cafe", "name": "Caffe Capital", "opening_hours": "Mo-Fr 06:30-16:30, Sa 08:00-14:30"}}, {"type": "node", "id": 735146252, "lat": 51.5203905, "lon": -0.1355431}, {"type": "node", "id": 735146515, "lat": 51.5205048, "lon": -0.1351912}, {"type": "node", "id": 735146516, "lat": 51.5207484, "lon": -0.1346461}, {"type": "node", "id": 735368929, "lat": 51.5208852, "lon": -0.1211241, "tags": {"addr:housenumber": "25", "addr:street": "Boswell Street", "amenity": "cafe", "name": "Internet Cafe"}}, {"type": "node", "id": 746611714, "lat": 51.514958, "lon": -0.125142, "tags": {"amenity": "cafe", "cuisine": "italian", "name": "La Torre"}}, {"type": "node", "id": 762080061, "lat": 51.5131197, "lon": -0.1043794}, {"type": "node", "id": 767557708, "lat": 51.5140532, "lon": -0.1356275}, {"type": "node", "id": 767557712, "lat": 51.5146943, "lon": -0.1359056, "tags": {"entrance": "main"}}, {"type": "node", "id": 767557777, "lat": 51.5140623, "lon": -0.1356364}, {"type": "node", "id": 767557823, "lat": 51.5141433, "lon": -0.1354558}, {"type": "node", "id": 771982861, "lat": 51.5146691, "lon": -0.135985}, {"type": "node", "id": 771982877, "lat": 51.5145841, "lon": -0.1356608}, {"type": "node", "id": 771982924, "lat": 51.5145413, "lon": -0.1356232}, {"type": "node", "id": 771982962, "lat": 51.5140824, "lon": -0.1356511}, {"type": "node", "id": 772092158, "lat": 51.5140298, "lon": -0.1350123}, {"type": "node", "id": 772585801, "lat": 51.5149691, "lon": -0.1224523}, {"type": "node", "id": 799284830, "lat": 51.5145479, "lon": -0.1387551, "tags": {"amenity": "cafe", "brand": "Costa", "brand:wikidata": "Q608845", "brand:wikipedia": "en:Costa Coffee", "cuisine": "coffee_shop", "name": "Costa", "takeaway": "yes", "wheelchair": "no"}}, {"type": "node", "id": 811773306, "lat": 51.5335831, "lon": -0.1044742, "tags": {"addr:housenumber": "30", "addr:street": "Duncan Street", "amenity": "cafe", "name": "Double Knot Cafe", "was:name": "Soul Kitchen Cafe"}}, {"type": "node", "id": 811773600, "lat": 51.5336571, "lon": -0.1047363, "tags": {"addr:city": "London", "addr:housenumber": "54", "addr:postcode": "N1 8BW", "addr:street": "Duncan Street", "amenity": "cafe", "fhrs:id": "417727", "name": "Daily Grind"}}, {"type": "node", "id": 821341498, "lat": 51.5102588, "lon": -0.1238297}, {"type": "node", "id": 821341543, "lat": 51.5105724, "lon": -0.1243916}, {"type": "node", "id": 821341545, "lat": 51.510334, "lon": -0.1239953}, {"type": "node", "id": 821341573, "lat": 51.5106517, "lon": -0.1244968}, {"type": "node", "id": 821344552, "lat": 51.5110476, "lon": -0.1261919, "tags": {"addr:city": "London", "addr:housenumber": "7", "addr:postcode": "WC2N 4LH", "addr:street": "New Row", "amenity": "cafe", "cuisine": "portuguese", "name": "Santa Nata", "opening_hours": "Mo-Su 10:00-22:00", "phone": "+44 20 7379 9507", "website": "https://santanata.com/", "wheelchair": "no"}}, {"type": "node", "id": 821344556, "lat": 51.5110101, "lon": -0.1266538, "tags": {"addr:city": "London", "addr:housenumber": "2a", "addr:street": "New Row", "amenity": "cafe", "check_date:opening_hours": "2023-10-03", "indoor_seating": "yes", "name": "Knoops", "old_name": "Splash", "opening_hours:signed": "no", "outdoor_seating": "yes", "website": "https://knoops.co.uk/", "wheelchair": "no"}}, {"type": "node", "id": 821930971, "lat": 51.52422, "lon": -0.127635, "tags": {"addr:city": "London", "addr:housenumber": "33-35", "addr:postcode": "WC1H 0JR", "addr:street": "Woburn Place", "amenity": "cafe", "fhrs:id": "425030", "name": "Cafe Toscana", "source:addr": "FHRS Open Data"}}, {"type": "node", "id": 826617770, "lat": 51.5200947, "lon": -0.1040768}, {"type": "node", "id": 839047558, "lat": 51.517476, "lon": -0.11902, "tags": {"addr:housenumber": "10", "addr:street": "Little Turnstile", "amenity": "cafe", "cuisine": "sandwich", "name": "Buffet Service"}}, {"type": "node", "id": 840101660, "lat": 51.533672, "lon": -0.105291, "tags": {"amenity": "cafe", "name": "Cafe Express"}}, {"type": "node", "id": 840177920, "lat": 51.5134528, "lon": -0.1227171, "tags": {"addr:housenumber": "52", "addr:street": "Floral street", "amenity": "cafe", "name": "Kastina And Ovens", "phone": "+44 20 7836 2700", "takeaway": "yes", "wheelchair": "no", "wikidata": "Q26319696"}}, {"type": "node", "id": 840206376, "lat": 51.5113165, "lon": -0.1188373}, {"type": "node", "id": 847921378, "lat": 51.5143842, "lon": -0.124185}, {"type": "node", "id": 849731728, "lat": 51.5078958, "lon": -0.124384, "tags": {"addr:city": "London", "addr:postcode": "WC2N 6NG", "amenity": "cafe", "layer": "-1", "name": "Blue Onion"}}, {"type": "node", "id": 849735707, "lat": 51.507844, "lon": -0.123661, "tags": {"addr:city": "London", "amenity": "cafe", "brand": "Starbucks", "brand:wikidata": "Q37158", "brand:wikipedia": "en:Starbucks", "cuisine": "coffee_shop", "internet_access": "wlan", "name": "Starbucks", "official_name": "Starbucks Coffee", "outdoor_seating": "no", "payment:american_express": "yes", "takeaway": "yes", "website": "https://www.starbucks.co.uk/", "wheelchair": "yes"}}, {"type": "node", "id": 857397741, "lat": 51.5209793, "lon": -0.1218567, "tags": {"amenity": "cafe", "name": "Mary Ward Cafe"}}, {"type": "node", "id": 857400975, "lat": 51.5258141, "lon": -0.110502}, {"type": "node", "id": 857557040, "lat": 51.5098582, "lon": -0.1227456}, {"type": "node", "id": 857557300, "lat": 51.5097387, "lon": -0.1226051}, {"type": "node", "id": 857557367, "lat": 51.5097892, "lon": -0.1224907}, {"type": "node", "id": 857557462, "lat": 51.5099098, "lon": -0.1226353}, {"type": "node", "id": 874743647, "lat": 51.5251596, "lon": -0.139466, "tags": {"addr:city": "London", "addr:country": "GB", "addr:housename": "Euston Tower", "addr:housenumber": "286", "addr:postcode": "NW1 3DP", "addr:street": "Euston Road", "amenity": "cafe", "brand": "Starbucks", "brand:wikidata": "Q37158", "brand:wikipedia": "en:Starbucks", "cuisine": "coffee_shop", "fhrs:id": "424765", "indoor_seating": "yes", "name": "Starbucks", "not:addr:postcode": "NW1 3BY", "official_name": "Starbucks Coffee", "outdoor_seating": "yes", "source:addr:postcode": "code-point_open", "takeaway": "yes"}}, {"type": "node", "id": 874743792, "lat": 51.5263332, "lon": -0.1254691, "tags": {"amenity": "cafe", "cuisine": "bubble_tea", "indoor_seating": "yes", "name": "Munchies", "outdoor_seating": "no"}}, {"type": "node", "id": 874823452, "lat": 51.5216048, "lon": -0.1245806, "tags": {"amenity": "cafe", "booth": "K6", "check_date": "2022-09-21", "covered": "booth", "listed_status": "Grade II", "man_made": "telephone_box", "name": "Walkmisu"}}, {"type": "node", "id": 889216192, "lat": 51.5222434, "lon": -0.1258414}, {"type": "node", "id": 889216193, "lat": 51.5221429, "lon": -0.1255907}, {"type": "node", "id": 889216253, "lat": 51.5222549, "lon": -0.1256673}, {"type": "node", "id": 889216312, "lat": 51.5221787, "lon": -0.1258633}, {"type": "node", "id": 889216362, "lat": 51.522222, "lon": -0.1256785}, {"type": "node", "id": 889216404, "lat": 51.5222406, "lon": -0.1255577}, {"type": "node", "id": 890375820, "lat": 51.5185047, "lon": -0.119155}, {"type": "node", "id": 890375833, "lat": 51.5185248, "lon": -0.1190165}, {"type": "node", "id": 891516197, "lat": 51.5153812, "lon": -0.1506769}, {"type": "node", "id": 893489167, "lat": 51.519634, "lon": -0.1171053, "tags": {"addr:city": "London", "addr:housenumber": "28", "addr:postcode": "WC1R 4PS", "addr:street": "Red Lion Street", "amenity": "cafe", "name": "Beck's cafe", "opening_hours": "Mo-Fr 07:00-22:00; Sa,Su 07:00-15:00", "outdoor_seating": "yes", "website": "http://www.beckscafe.co.uk/", "wheelchair": "limited"}}, {"type": "node", "id": 893489170, "lat": 51.5195469, "lon": -0.1173284, "tags": {"addr:city": "London", "addr:housenumber": "53", "addr:postcode": "WC1R 4PD", "addr:street": "Red Lion Street", "amenity": "cafe", "name": "Kozzy Cafe", "wheelchair": "no"}}, {"type": "node", "id": 895037703, "lat": 51.5214763, "lon": -0.1139063, "tags": {"amenity": "cafe", "contact:phone": "+44 20 7430 0110", "name": "La Scampa", "source": "photo"}}, {"type": "node", "id": 895113291, "lat": 51.5192332, "lon": -0.1191483}, {"type": "node", "id": 895113322, "lat": 51.5192762, "lon": -0.1191831}, {"type": "node", "id": 895113348, "lat": 51.5192722, "lon": -0.1190235}, {"type": "node", "id": 895113459, "lat": 51.5193152, "lon": -0.1190583}, {"type": "node", "id": 931621507, "lat": 51.5400055, "lon": -0.1405896, "tags": {"addr:city": "London", "addr:housenumber": "30", "addr:street": "Camden Road", "amenity": "cafe", "name": "Camden Coffee House", "note": "Free WiFi"}}, {"type": "node", "id": 931642103, "lat": 51.5396032, "lon": -0.1430126}, {"type": "node", "id": 931645316, "lat": 51.541376, "lon": -0.1573432, "tags": {"amenity": "cafe", "name": "Seventy nine"}}, {"type": "node", "id": 931645658, "lat": 51.5395767, "lon": -0.1429917}, {"type": "node", "id": 931673369, "lat": 51.5402019, "lon": -0.1542648, "tags": {"amenity": "cafe", "cuisine": "french", "name": "L' Absinthe"}}, {"type": "node", "id": 931673374, "lat": 51.540893, "lon": -0.1572703}, {"type": "node", "id": 931673375, "lat": 51.5409412, "lon": -0.1572398}, {"type": "node", "id": 931673376, "lat": 51.5409918, "lon": -0.1572078}, {"type": "node", "id": 931673377, "lat": 51.5410416, "lon": -0.1571762}, {"type": "node", "id": 931673398, "lat": 51.5406548, "lon": -0.1577484, "tags": {"amenity": "cafe", "cuisine": "crepe;sandwich", "indoor_seating": "yes", "internet_access": "no", "name": "Le Tea Cosy", "number": "51", "outdoor_seating": "sidewalk", "payment:visa": "yes"}}, {"type": "node", "id": 938138385, "lat": 51.5079459, "lon": -0.1103056}, {"type": "node", "id": 938138406, "lat": 51.5079952, "lon": -0.1103866}, {"type": "node", "id": 938138419, "lat": 51.5079991, "lon": -0.1103116}, {"type": "node", "id": 938138426, "lat": 51.5079435, "lon": -0.1103807}, {"type": "node", "id": 946920347, "lat": 51.5178099, "lon": -0.125537}, {"type": "node", "id": 946920480, "lat": 51.5178589, "lon": -0.1270313}, {"type": "node", "id": 949045888, "lat": 51.5165304, "lon": -0.125988}, {"type": "node", "id": 970857058, "lat": 51.5172386, "lon": -0.1297991}, {"type": "node", "id": 970857086, "lat": 51.5174911, "lon": -0.1293804}, {"type": "node", "id": 972872824, "lat": 51.5194311, "lon": -0.109103}, {"type": "node", "id": 1043301728, "lat": 51.525692, "lon": -0.1333174, "tags": {"addr:city": "London", "addr:floor": "Ground", "addr:housenumber": "25", "addr:postcode": "WC1H 0AY", "addr:street": "Gordon Street", "amenity": "cafe", "level": "0", "name": "Gordon's Caf\u00e9", "opening_hours": "Mo-Fr 08:00-18:00", "operator": "Students' Union UCL", "toilets": "yes", "toilets:wheelchair": "yes", "website": "https://studentsunionucl.org/eat-drink-shop/cafes/gordons-cafe", "wheelchair": "yes"}}, {"type": "node", "id": 1043439188, "lat": 51.5250809, "lon": -0.1352962}, {"type": "node", "id": 1080591779, "lat": 51.5157871, "lon": -0.1283746}, {"type": "node", "id": 1080591781, "lat": 51.5158412, "lon": -0.1281874}, {"type": "node", "id": 1126374671, "lat": 51.5172336, "lon": -0.1216034}, {"type": "node", "id": 1138902659, "lat": 51.515598, "lon": -0.1075598, "tags": {"addr:city": "London", "addr:housenumber": "1", "addr:postcode": "EC4A 3BH", "addr:street": "Printer Street", "amenity": "cafe", "fhrs:id": "294759", "name": "Pod"}}, {"type": "node", "id": 1139698330, "lat": 51.5204302, "lon": -0.1063776}, {"type": "node", "id": 1139896038, "lat": 51.5221637, "lon": -0.1093992}, {"type": "node", "id": 1139896251, "lat": 51.5222025, "lon": -0.1093329}, {"type": "node", "id": 1139898771, "lat": 51.5221847, "lon": -0.1092423}, {"type": "node", "id": 1139919982, "lat": 51.5144429, "lon": -0.1223443}, {"type": "node", "id": 1139920000, "lat": 51.514587, "lon": -0.1222466}, {"type": "node", "id": 1139920005, "lat": 51.5145018, "lon": -0.1224326}, {"type": "node", "id": 1139920019, "lat": 51.5146153, "lon": -0.1221959}, {"type": "node", "id": 1139920028, "lat": 51.5142739, "lon": -0.1226571}, {"type": "node", "id": 1139920039, "lat": 51.514656, "lon": -0.1222546}, {"type": "node", "id": 1139920078, "lat": 51.5143951, "lon": -0.1224193}, {"type": "node", "id": 1139920148, "lat": 51.5144557, "lon": -0.1225066}, {"type": "node", "id": 1139920186, "lat": 51.5142766, "lon": -0.1226064}, {"type": "node", "id": 1139920193, "lat": 51.5145864, "lon": -0.1223794}, {"type": "node", "id": 1139920224, "lat": 51.5145457, "lon": -0.1223207}, {"type": "node", "id": 1149458787, "lat": 51.5257771, "lon": -0.1095186}, {"type": "node", "id": 1149458835, "lat": 51.5258035, "lon": -0.1094659}, {"type": "node", "id": 1149458975, "lat": 51.5258335, "lon": -0.1095891}, {"type": "node", "id": 1149459137, "lat": 51.526026, "lon": -0.1090074}, {"type": "node", "id": 1149459278, "lat": 51.5260551, "lon": -0.1089459}, {"type": "node", "id": 1149459366, "lat": 51.526087, "lon": -0.1090823}, {"type": "node", "id": 1149459477, "lat": 51.5258591, "lon": -0.1095378}, {"type": "node", "id": 1149459512, "lat": 51.5261149, "lon": -0.109023}, {"type": "node", "id": 1154267389, "lat": 51.5176086, "lon": -0.1424608}, {"type": "node", "id": 1154267394, "lat": 51.5175273, "lon": -0.1424242}, {"type": "node", "id": 1154267397, "lat": 51.5175106, "lon": -0.1425186}, {"type": "node", "id": 1154267399, "lat": 51.5176451, "lon": -0.142478}, {"type": "node", "id": 1155427118, "lat": 51.511381, "lon": -0.121491}, {"type": "node", "id": 1155427422, "lat": 51.5114216, "lon": -0.1215906}, {"type": "node", "id": 1155427726, "lat": 51.5102356, "lon": -0.1238888}, {"type": "node", "id": 1155427850, "lat": 51.5102755, "lon": -0.1237879}, {"type": "node", "id": 1155428467, "lat": 51.5126302, "lon": -0.1210444}, {"type": "node", "id": 1155428476, "lat": 51.5113128, "lon": -0.1214219}, {"type": "node", "id": 1155429159, "lat": 51.5113658, "lon": -0.1215291}, {"type": "node", "id": 1156331082, "lat": 51.51108, "lon": -0.1222996}, {"type": "node", "id": 1156331268, "lat": 51.5111356, "lon": -0.122354}, {"type": "node", "id": 1156331305, "lat": 51.5110215, "lon": -0.1226259}, {"type": "node", "id": 1156331333, "lat": 51.5109711, "lon": -0.1225717}, {"type": "node", "id": 1158874253, "lat": 51.5258609, "lon": -0.1254005}, {"type": "node", "id": 1161154386, "lat": 51.5314771, "lon": -0.1058276}, {"type": "node", "id": 1161154473, "lat": 51.5314363, "lon": -0.1060492}, {"type": "node", "id": 1163876152, "lat": 51.511007, "lon": -0.122481}, {"type": "node", "id": 1180388830, "lat": 51.5178663, "lon": -0.1116552}, {"type": "node", "id": 1201352698, "lat": 51.5421742, "lon": -0.1382119}, {"type": "node", "id": 1201352700, "lat": 51.5422094, "lon": -0.1383113}, {"type": "node", "id": 1201352705, "lat": 51.5422211, "lon": -0.1381691}, {"type": "node", "id": 1219902275, "lat": 51.5130473, "lon": -0.1045813}, {"type": "node", "id": 1227945918, "lat": 51.5159444, "lon": -0.1423907}, {"type": "node", "id": 1230566451, "lat": 51.5099606, "lon": -0.1267856}, {"type": "node", "id": 1230566455, "lat": 51.5099728, "lon": -0.1266041}, {"type": "node", "id": 1230566518, "lat": 51.5100324, "lon": -0.1266132}, {"type": "node", "id": 1230566519, "lat": 51.5100209, "lon": -0.1267882}, {"type": "node", "id": 1230621767, "lat": 51.5233826, "lon": -0.1381594}, {"type": "node", "id": 1230621842, "lat": 51.5154036, "lon": -0.1505388}, {"type": "node", "id": 1230621859, "lat": 51.5149147, "lon": -0.1501811}, {"type": "node", "id": 1230621920, "lat": 51.5149963, "lon": -0.1502163}, {"type": "node", "id": 1230621949, "lat": 51.5232928, "lon": -0.13711}, {"type": "node", "id": 1230621955, "lat": 51.5234256, "lon": -0.1383352}, {"type": "node", "id": 1230621998, "lat": 51.51501, "lon": -0.1501362}, {"type": "node", "id": 1232368577, "lat": 51.53866, "lon": -0.143358}, {"type": "node", "id": 1232368644, "lat": 51.5389324, "lon": -0.1431501}, {"type": "node", "id": 1261370081, "lat": 51.5161053, "lon": -0.1426536}, {"type": "node", "id": 1261370087, "lat": 51.5163232, "lon": -0.1427392}, {"type": "node", "id": 1261370091, "lat": 51.5162244, "lon": -0.142692}, {"type": "node", "id": 1261370092, "lat": 51.5159272, "lon": -0.1424138}, {"type": "node", "id": 1261370096, "lat": 51.5160946, "lon": -0.1427614}, {"type": "node", "id": 1261370103, "lat": 51.5159611, "lon": -0.1426144}, {"type": "node", "id": 1261370107, "lat": 51.5158968, "lon": -0.1425878}, {"type": "node", "id": 1261370123, "lat": 51.5163104, "lon": -0.1428038}, {"type": "node", "id": 1261370128, "lat": 51.5161381, "lon": -0.1427868}, {"type": "node", "id": 1261370132, "lat": 51.5161489, "lon": -0.1427204}, {"type": "node", "id": 1261370134, "lat": 51.5159672, "lon": -0.142577}, {"type": "node", "id": 1261370147, "lat": 51.516165, "lon": -0.1426207}, {"type": "node", "id": 1261385586, "lat": 51.5169926, "lon": -0.142028}, {"type": "node", "id": 1261385643, "lat": 51.5168637, "lon": -0.1419701}, {"type": "node", "id": 1261429025, "lat": 51.5172981, "lon": -0.1430038}, {"type": "node", "id": 1261429158, "lat": 51.5172768, "lon": -0.143135}, {"type": "node", "id": 1265013746, "lat": 51.5161941, "lon": -0.1425062}, {"type": "node", "id": 1265087045, "lat": 51.5170045, "lon": -0.1419648}, {"type": "node", "id": 1317141112, "lat": 51.5267696, "lon": -0.1380366}, {"type": "node", "id": 1317141128, "lat": 51.5267224, "lon": -0.1379467}, {"type": "node", "id": 1317141133, "lat": 51.5266924, "lon": -0.1382362}, {"type": "node", "id": 1317141142, "lat": 51.5267785, "lon": -0.1379994}, {"type": "node", "id": 1317141161, "lat": 51.5267534, "lon": -0.1382499}, {"type": "node", "id": 1317141254, "lat": 51.5266539, "lon": -0.1381598}, {"type": "node", "id": 1317141319, "lat": 51.5267564, "lon": -0.1381816}, {"type": "node", "id": 1317141343, "lat": 51.5266389, "lon": -0.1382208}, {"type": "node", "id": 1324710031, "lat": 51.5130445, "lon": -0.133789}, {"type": "node", "id": 1324710057, "lat": 51.5129694, "lon": -0.1337314}, {"type": "node", "id": 1324710139, "lat": 51.5127649, "lon": -0.1341478}, {"type": "node", "id": 1330687503, "lat": 51.5136118, "lon": -0.1348562}, {"type": "node", "id": 1330687520, "lat": 51.5136559, "lon": -0.134894}, {"type": "node", "id": 1330788640, "lat": 51.512509, "lon": -0.134416, "tags": {"amenity": "cafe", "name": "The Living Room", "outdoor_seating": "no", "wheelchair": "limited"}}, {"type": "node", "id": 1335531754, "lat": 51.5195174, "lon": -0.1375075}, {"type": "node", "id": 1335531807, "lat": 51.519559, "lon": -0.1374054}, {"type": "node", "id": 1335571591, "lat": 51.5195226, "lon": -0.1362665}, {"type": "node", "id": 1335571636, "lat": 51.5194809, "lon": -0.1362232}, {"type": "node", "id": 1335571660, "lat": 51.5195559, "lon": -0.135985}, {"type": "node", "id": 1335571693, "lat": 51.5195122, "lon": -0.1360946}, {"type": "node", "id": 1335571724, "lat": 51.5196116, "lon": -0.1360423}, {"type": "node", "id": 1335571747, "lat": 51.519864, "lon": -0.1363021}, {"type": "node", "id": 1335571768, "lat": 51.5197435, "lon": -0.1365981}, {"type": "node", "id": 1335571786, "lat": 51.5196963, "lon": -0.1365491}, {"type": "node", "id": 1335571802, "lat": 51.5198152, "lon": -0.1362519}, {"type": "node", "id": 1335571823, "lat": 51.5197608, "lon": -0.1363854}, {"type": "node", "id": 1340967807, "lat": 51.5200399, "lon": -0.1586635, "tags": {"addr:city": "London", "addr:housenumber": "13a", "addr:postcode": "W1U 6BZ", "addr:street": "Crawford Street", "alt_name": "Sara Shisha", "amenity": "cafe", "cuisine": "international", "int_name": "Sara Shisha / Hookah London", "name": "Sara Cafe Shisha", "website": "https://saracafe.co.uk/"}}, {"type": "node", "id": 1342099654, "lat": 51.5338201, "lon": -0.1090602}, {"type": "node", "id": 1342099655, "lat": 51.5334024, "lon": -0.1110896}, {"type": "node", "id": 1342099676, "lat": 51.5338046, "lon": -0.1080993}, {"type": "node", "id": 1342099691, "lat": 51.5333883, "lon": -0.1113021}, {"type": "node", "id": 1342099713, "lat": 51.533809, "lon": -0.108023}, {"type": "node", "id": 1342099722, "lat": 51.5335741, "lon": -0.1086829}, {"type": "node", "id": 1342099734, "lat": 51.5335558, "lon": -0.1090298}, {"type": "node", "id": 1342099756, "lat": 51.5334392, "lon": -0.1108635}, {"type": "node", "id": 1342099802, "lat": 51.5336175, "lon": -0.108071}, {"type": "node", "id": 1342099809, "lat": 51.5335177, "lon": -0.1108795}, {"type": "node", "id": 1342099820, "lat": 51.5336467, "lon": -0.108979}, {"type": "node", "id": 1342099832, "lat": 51.5336731, "lon": -0.1086978}, {"type": "node", "id": 1342099833, "lat": 51.5335605, "lon": -0.1089633}, {"type": "node", "id": 1342099845, "lat": 51.5335082, "lon": -0.1111085}, {"type": "node", "id": 1342099871, "lat": 51.533622, "lon": -0.1079948}, {"type": "node", "id": 1342099878, "lat": 51.5336777, "lon": -0.1086186}, {"type": "node", "id": 1342099879, "lat": 51.5338294, "lon": -0.1089285}, {"type": "node", "id": 1342099889, "lat": 51.5337882, "lon": -0.108921}, {"type": "node", "id": 1342099897, "lat": 51.5337789, "lon": -0.1090527}, {"type": "node", "id": 1342099921, "lat": 51.533642, "lon": -0.1090454}, {"type": "node", "id": 1342099934, "lat": 51.5335787, "lon": -0.1086037}, {"type": "node", "id": 1342102309, "lat": 51.5132928, "lon": -0.1536873}, {"type": "node", "id": 1342102311, "lat": 51.5125008, "lon": -0.1533144}, {"type": "node", "id": 1342108944, "lat": 51.5332459, "lon": -0.1095865}, {"type": "node", "id": 1342109220, "lat": 51.5333007, "lon": -0.1089012}, {"type": "node", "id": 1343966881, "lat": 51.5297854, "lon": -0.1106374, "tags": {"addr:city": "London", "addr:housenumber": "61", "addr:postcode": "EC1R 1UR", "addr:street": "Amwell Street", "amenity": "cafe", "name": "Ground Control", "website": "https://www.theethiopiancoffeecompany.co.uk"}}, {"type": "node", "id": 1344022045, "lat": 51.5346714, "lon": -0.1115691, "tags": {"addr:city": "London", "addr:housenumber": "5", "addr:postcode": "N1 0HG", "addr:street": "Barnsbury Road", "amenity": "cafe", "name": "Coffee Berry", "old_name": "Aryubi Express", "source:addr": "survey"}}, {"type": "node", "id": 1344810466, "lat": 51.5333504, "lon": -0.1088222}, {"type": "node", "id": 1344810471, "lat": 51.5334196, "lon": -0.1088289}, {"type": "node", "id": 1344810475, "lat": 51.5333034, "lon": -0.1088182}, {"type": "node", "id": 1344810518, "lat": 51.5334158, "lon": -0.1089063}, {"type": "node", "id": 1345654356, "lat": 51.5333971, "lon": -0.1095642}, {"type": "node", "id": 1345654363, "lat": 51.5333923, "lon": -0.1096329}, {"type": "node", "id": 1345654365, "lat": 51.5332448, "lon": -0.1096133}, {"type": "node", "id": 1345654367, "lat": 51.5333005, "lon": -0.1096183}, {"type": "node", "id": 1345654370, "lat": 51.5333121, "lon": -0.1095481}, {"type": "node", "id": 1375634470, "lat": 51.5133957, "lon": -0.1227397}, {"type": "node", "id": 1389762971, "lat": 51.5309428, "lon": -0.1503748}, {"type": "node", "id": 1389762973, "lat": 51.5310225, "lon": -0.1505687}, {"type": "node", "id": 1389762987, "lat": 51.5310341, "lon": -0.1502778}, {"type": "node", "id": 1389763002, "lat": 51.5311138, "lon": -0.1504717}, {"type": "node", "id": 1391451760, "lat": 51.5186828, "lon": -0.1247627}, {"type": "node", "id": 1391451783, "lat": 51.5186845, "lon": -0.1247891}, {"type": "node", "id": 1448823359, "lat": 51.52495, "lon": -0.1351613, "tags": {"entrance": "emergency", "wheelchair": "yes"}}, {"type": "node", "id": 1448832636, "lat": 51.5233009, "lon": -0.1372458}, {"type": "node", "id": 1448848427, "lat": 51.5232565, "lon": -0.1372046}, {"type": "node", "id": 1455585958, "lat": 51.526113, "lon": -0.1234396, "tags": {"amenity": "cafe", "indoor_seating": "yes", "name": "Project68", "outdoor_seating": "yes"}}, {"type": "node", "id": 1455585960, "lat": 51.5260671, "lon": -0.1235652, "tags": {"amenity": "cafe", "indoor_seating": "yes", "name": "The King Of Falafel", "outdoor_seating": "yes"}}, {"type": "node", "id": 1455621433, "lat": 51.5263241, "lon": -0.1222565, "tags": {"amenity": "cafe", "name": "Lumen"}}, {"type": "node", "id": 1473318637, "lat": 51.5174301, "lon": -0.1343501}, {"type": "node", "id": 1473318654, "lat": 51.517454, "lon": -0.1342876}, {"type": "node", "id": 1473318661, "lat": 51.5175041, "lon": -0.134337}, {"type": "node", "id": 1473318677, "lat": 51.5175728, "lon": -0.134162}, {"type": "node", "id": 1473318682, "lat": 51.5177168, "lon": -0.1346447}, {"type": "node", "id": 1484198294, "lat": 51.5177498, "lon": -0.1341301}, {"type": "node", "id": 1484198379, "lat": 51.517814, "lon": -0.1339676}, {"type": "node", "id": 1496726762, "lat": 51.5135795, "lon": -0.1389365}, {"type": "node", "id": 1504833279, "lat": 51.5163244, "lon": -0.1392261, "tags": {"addr:city": "London", "addr:housenumber": "47", "addr:postcode": "W1W 8DY", "addr:street": "Eastcastle Street", "amenity": "cafe", "fhrs:id": "1450599", "indoor_seating": "yes", "name": "Bageltopia", "outdoor_seating": "yes", "source:addr": "FHRS Open Data"}}, {"type": "node", "id": 1504833289, "lat": 51.5163797, "lon": -0.1402954}, {"type": "node", "id": 1508434147, "lat": 51.5229867, "lon": -0.1143482, "tags": {"amenity": "cafe", "cuisine": "sandwich", "diet:vegetarian": "yes", "name": "Gray's Kitchen", "toilets:wheelchair": "no", "wheelchair": "limited"}}, {"type": "node", "id": 1509618169, "lat": 51.5292231, "lon": -0.1275562}, {"type": "node", "id": 1509618180, "lat": 51.5292546, "lon": -0.127477}, {"type": "node", "id": 1509618206, "lat": 51.5292843, "lon": -0.1275075}, {"type": "node", "id": 1509618215, "lat": 51.5293019, "lon": -0.1274633}, {"type": "node", "id": 1509618225, "lat": 51.5293098, "lon": -0.1276451}, {"type": "node", "id": 1509618231, "lat": 51.5293293, "lon": -0.127596}, {"type": "node", "id": 1509618239, "lat": 51.5293588, "lon": -0.1275218}, {"type": "node", "id": 1538882709, "lat": 51.5364116, "lon": -0.1164148, "tags": {"addr:city": "London", "addr:housenumber": "196", "addr:postcode": "N1 0SQ", "addr:street": "Caledonian Road", "addr:suburb": "Islington", "amenity": "cafe", "cuisine": "ethiopian", "fhrs:id": "745733", "name": "Merkato", "source:addr": "FHRS Open Data", "takeaway": "yes"}}, {"type": "node", "id": 1538888929, "lat": 51.5366562, "lon": -0.1163601, "tags": {"amenity": "cafe", "internet_access": "terminal", "name": "internet cafe"}}, {"type": "node", "id": 1572026847, "lat": 51.5089983, "lon": -0.1269252}, {"type": "node", "id": 1572026870, "lat": 51.5090562, "lon": -0.1263102}, {"type": "node", "id": 1572026939, "lat": 51.5090655, "lon": -0.1267928}, {"type": "node", "id": 1588852274, "lat": 51.516991, "lon": -0.1186257}, {"type": "node", "id": 1595157303, "lat": 51.5243952, "lon": -0.1161518}, {"type": "node", "id": 1596927825, "lat": 51.5252507, "lon": -0.1106837}, {"type": "node", "id": 1596927827, "lat": 51.5252545, "lon": -0.1106516}, {"type": "node", "id": 1596927831, "lat": 51.5253087, "lon": -0.1107796}, {"type": "node", "id": 1596927833, "lat": 51.5253064, "lon": -0.110629}, {"type": "node", "id": 1596927851, "lat": 51.5253583, "lon": -0.1107031}, {"type": "node", "id": 1596927890, "lat": 51.5257592, "lon": -0.1104229}, {"type": "node", "id": 1596927892, "lat": 51.5257633, "lon": -0.1104309}, {"type": "node", "id": 1596927911, "lat": 51.5258378, "lon": -0.1104557}, {"type": "node", "id": 1596928044, "lat": 51.5274164, "lon": -0.1054807}, {"type": "node", "id": 1596928050, "lat": 51.5274842, "lon": -0.1055619}, {"type": "node", "id": 1597687535, "lat": 51.511956, "lon": -0.126158}, {"type": "node", "id": 1609307452, "lat": 51.5252543, "lon": -0.1098455}, {"type": "node", "id": 1609307455, "lat": 51.5253675, "lon": -0.1098971}, {"type": "node", "id": 1611183083, "lat": 51.5188933, "lon": -0.1558869}, {"type": "node", "id": 1611183092, "lat": 51.5189431, "lon": -0.1559087}, {"type": "node", "id": 1611183094, "lat": 51.5189533, "lon": -0.1555521}, {"type": "node", "id": 1611183099, "lat": 51.5190039, "lon": -0.1555761}, {"type": "node", "id": 1616074232, "lat": 51.5148877, "lon": -0.1255596}, {"type": "node", "id": 1616074268, "lat": 51.5149031, "lon": -0.1255328}, {"type": "node", "id": 1616074277, "lat": 51.514946, "lon": -0.1256872}, {"type": "node", "id": 1616074279, "lat": 51.5149518, "lon": -0.1256808}, {"type": "node", "id": 1616074289, "lat": 51.5149696, "lon": -0.125435}, {"type": "node", "id": 1616074312, "lat": 51.5150229, "lon": -0.1255471}, {"type": "node", "id": 1616122161, "lat": 51.5144294, "lon": -0.1242528}, {"type": "node", "id": 1616149789, "lat": 51.5141194, "lon": -0.124649}, {"type": "node", "id": 1616149790, "lat": 51.5141304, "lon": -0.1246082}, {"type": "node", "id": 1616149791, "lat": 51.5141368, "lon": -0.1246189}, {"type": "node", "id": 1616149792, "lat": 51.5141502, "lon": -0.1245676}, {"type": "node", "id": 1616149793, "lat": 51.5141707, "lon": -0.1245902}, {"type": "node", "id": 1616149794, "lat": 51.5141818, "lon": -0.1245701}, {"type": "node", "id": 1616149795, "lat": 51.5142373, "lon": -0.1247588}, {"type": "node", "id": 1616149796, "lat": 51.5142404, "lon": -0.1246631}, {"type": "node", "id": 1616149797, "lat": 51.5142371, "lon": -0.124679}, {"type": "node", "id": 1616149798, "lat": 51.5142496, "lon": -0.1246435}, {"type": "node", "id": 1616149799, "lat": 51.5142424, "lon": -0.1246657}, {"type": "node", "id": 1616149800, "lat": 51.5142611, "lon": -0.1247065}, {"type": "node", "id": 1616149801, "lat": 51.5144119, "lon": -0.1241391}, {"type": "node", "id": 1616149803, "lat": 51.5144559, "lon": -0.1242044}, {"type": "node", "id": 1616149839, "lat": 51.5151967, "lon": -0.1216732}, {"type": "node", "id": 1616149846, "lat": 51.5152372, "lon": -0.1216188}, {"type": "node", "id": 1616149849, "lat": 51.51526, "lon": -0.1218103}, {"type": "node", "id": 1616149850, "lat": 51.5152629, "lon": -0.1217395}, {"type": "node", "id": 1616149853, "lat": 51.5152829, "lon": -0.1217831}, {"type": "node", "id": 1616149854, "lat": 51.5152825, "lon": -0.1217163}, {"type": "node", "id": 1616162900, "lat": 51.5110719, "lon": -0.1188334}, {"type": "node", "id": 1616162905, "lat": 51.511119, "lon": -0.1186836}, {"type": "node", "id": 1616162909, "lat": 51.5111543, "lon": -0.1188976}, {"type": "node", "id": 1616162910, "lat": 51.5111376, "lon": -0.1186965}, {"type": "node", "id": 1616162913, "lat": 51.5112001, "lon": -0.1187455}, {"type": "node", "id": 1616162922, "lat": 51.5112371, "lon": -0.1187756}, {"type": "node", "id": 1616162924, "lat": 51.5112508, "lon": -0.1188806}, {"type": "node", "id": 1616162928, "lat": 51.511265, "lon": -0.1186982}, {"type": "node", "id": 1616162932, "lat": 51.5112708, "lon": -0.1186797}, {"type": "node", "id": 1616162935, "lat": 51.5112889, "lon": -0.1186276}, {"type": "node", "id": 1616162937, "lat": 51.5113078, "lon": -0.1185666}, {"type": "node", "id": 1616162938, "lat": 51.5112906, "lon": -0.1189102}, {"type": "node", "id": 1616162939, "lat": 51.5113435, "lon": -0.1187623}, {"type": "node", "id": 1616162942, "lat": 51.5113663, "lon": -0.1186937}, {"type": "node", "id": 1616162957, "lat": 51.5113856, "lon": -0.1186353}, {"type": "node", "id": 1617713593, "lat": 51.517259, "lon": -0.14319}, {"type": "node", "id": 1619354209, "lat": 51.5220373, "lon": -0.1514059}, {"type": "node", "id": 1619354212, "lat": 51.5220588, "lon": -0.1514405}, {"type": "node", "id": 1619354213, "lat": 51.522057, "lon": -0.1513072}, {"type": "node", "id": 1619354216, "lat": 51.5221027, "lon": -0.1513294}, {"type": "node", "id": 1619354219, "lat": 51.5221252, "lon": -0.1514032}, {"type": "node", "id": 1619542584, "lat": 51.5181897, "lon": -0.151653}, {"type": "node", "id": 1619542623, "lat": 51.5190622, "lon": -0.1519052}, {"type": "node", "id": 1619542625, "lat": 51.5190688, "lon": -0.1517904}, {"type": "node", "id": 1619542633, "lat": 51.5191426, "lon": -0.151948}, {"type": "node", "id": 1619542634, "lat": 51.5191509, "lon": -0.1518009}, {"type": "node", "id": 1641177775, "lat": 51.5096515, "lon": -0.1267872}, {"type": "node", "id": 1641177776, "lat": 51.5096728, "lon": -0.1265272}, {"type": "node", "id": 1641177777, "lat": 51.5097073, "lon": -0.1267836}, {"type": "node", "id": 1659659944, "lat": 51.5152666, "lon": -0.1290006}, {"type": "node", "id": 1659659945, "lat": 51.5153198, "lon": -0.1288805}, {"type": "node", "id": 1659659956, "lat": 51.5154065, "lon": -0.1289636}, {"type": "node", "id": 1659659958, "lat": 51.5154136, "lon": -0.1290129}, {"type": "node", "id": 1661594736, "lat": 51.5169015, "lon": -0.1187756}, {"type": "node", "id": 1661594737, "lat": 51.5169373, "lon": -0.1186346}, {"type": "node", "id": 1661594741, "lat": 51.5169708, "lon": -0.1186553}, {"type": "node", "id": 1661594759, "lat": 51.5170002, "lon": -0.1187531}, {"type": "node", "id": 1661594767, "lat": 51.5170204, "lon": -0.118766}, {"type": "node", "id": 1661594769, "lat": 51.5170245, "lon": -0.1187492}, {"type": "node", "id": 1661594771, "lat": 51.5170463, "lon": -0.1186609}, {"type": "node", "id": 1663070928, "lat": 51.5172175, "lon": -0.121682}, {"type": "node", "id": 1663070939, "lat": 51.517324, "lon": -0.1217489}, {"type": "node", "id": 1663070944, "lat": 51.5173387, "lon": -0.1216661}, {"type": "node", "id": 1666386208, "lat": 51.5205252, "lon": -0.1351836}, {"type": "node", "id": 1677474738, "lat": 51.5233135, "lon": -0.108065}, {"type": "node", "id": 1677474743, "lat": 51.523374, "lon": -0.1079458}, {"type": "node", "id": 1677475119, "lat": 51.5242692, "lon": -0.1077065}, {"type": "node", "id": 1677475147, "lat": 51.5242982, "lon": -0.1076415}, {"type": "node", "id": 1677475152, "lat": 51.5243325, "lon": -0.1077752}, {"type": "node", "id": 1677475153, "lat": 51.5243609, "lon": -0.1077117}, {"type": "node", "id": 1677679564, "lat": 51.5231613, "lon": -0.105152}, {"type": "node", "id": 1677679611, "lat": 51.5231925, "lon": -0.1050641}, {"type": "node", "id": 1677679647, "lat": 51.5232349, "lon": -0.1052365}, {"type": "node", "id": 1677679674, "lat": 51.5232768, "lon": -0.1052846}, {"type": "node", "id": 1677679693, "lat": 51.5232907, "lon": -0.1052264}, {"type": "node", "id": 1677679696, "lat": 51.5232987, "lon": -0.1052362}, {"type": "node", "id": 1677679717, "lat": 51.5233131, "lon": -0.1051736}, {"type": "node", "id": 1680893584, "lat": 51.5243707, "lon": -0.116261}, {"type": "node", "id": 1680893585, "lat": 51.5244521, "lon": -0.116314}, {"type": "node", "id": 1680893586, "lat": 51.5244684, "lon": -0.1162384}, {"type": "node", "id": 1681259776, "lat": 51.5223225, "lon": -0.1142294}, {"type": "node", "id": 1681259777, "lat": 51.5223559, "lon": -0.1141113}, {"type": "node", "id": 1681259778, "lat": 51.5223736, "lon": -0.1142667}, {"type": "node", "id": 1682431021, "lat": 51.524204, "lon": -0.1112791, "tags": {"amenity": "cafe", "name": "1st Class Cafe", "source": "photograph"}}, {"type": "node", "id": 1688535731, "lat": 51.5126965, "lon": -0.1341059}, {"type": "node", "id": 1688535742, "lat": 51.5127227, "lon": -0.1340351}, {"type": "node", "id": 1688535750, "lat": 51.5127869, "lon": -0.1340962}, {"type": "node", "id": 1688535759, "lat": 51.512938, "lon": -0.1338289}, {"type": "node", "id": 1688535769, "lat": 51.513023, "lon": -0.1338573}, {"type": "node", "id": 1688535865, "lat": 51.5136095, "lon": -0.1346846}, {"type": "node", "id": 1688535867, "lat": 51.5136556, "lon": -0.1347211}, {"type": "node", "id": 1688535974, "lat": 51.5139617, "lon": -0.1349971}, {"type": "node", "id": 1688535979, "lat": 51.5139812, "lon": -0.1349309}, {"type": "node", "id": 1688535982, "lat": 51.5140032, "lon": -0.1350326}, {"type": "node", "id": 1688535985, "lat": 51.5140214, "lon": -0.1350452}, {"type": "node", "id": 1688535986, "lat": 51.5140231, "lon": -0.1350385}, {"type": "node", "id": 1688535988, "lat": 51.5140591, "lon": -0.1350351}, {"type": "node", "id": 1688535989, "lat": 51.514062, "lon": -0.1349912}, {"type": "node", "id": 1688535996, "lat": 51.5140712, "lon": -0.134998}, {"type": "node", "id": 1700009621, "lat": 51.5170529, "lon": -0.1237591}, {"type": "node", "id": 1700009628, "lat": 51.5170898, "lon": -0.1239072}, {"type": "node", "id": 1700009630, "lat": 51.5171045, "lon": -0.1233276}, {"type": "node", "id": 1700009634, "lat": 51.5171177, "lon": -0.123337}, {"type": "node", "id": 1700009635, "lat": 51.5171195, "lon": -0.1232567}, {"type": "node", "id": 1700009639, "lat": 51.5171453, "lon": -0.1237811}, {"type": "node", "id": 1700009653, "lat": 51.5171894, "lon": -0.1233553}, {"type": "node", "id": 1700009654, "lat": 51.5171967, "lon": -0.1232751}, {"type": "node", "id": 1700106363, "lat": 51.5167735, "lon": -0.1258154}, {"type": "node", "id": 1700106396, "lat": 51.5167912, "lon": -0.1257627}, {"type": "node", "id": 1700106406, "lat": 51.5168359, "lon": -0.1258972}, {"type": "node", "id": 1700106421, "lat": 51.5168665, "lon": -0.1258754}, {"type": "node", "id": 1700106426, "lat": 51.5168777, "lon": -0.1258448}, {"type": "node", "id": 1700106897, "lat": 51.517459, "lon": -0.1263749}, {"type": "node", "id": 1700140724, "lat": 51.516489, "lon": -0.1260092}, {"type": "node", "id": 1700140727, "lat": 51.5165119, "lon": -0.1260984}, {"type": "node", "id": 1700140731, "lat": 51.5165531, "lon": -0.1260754}, {"type": "node", "id": 1700227249, "lat": 51.5136411, "lon": -0.1295882}, {"type": "node", "id": 1700227251, "lat": 51.5136473, "lon": -0.1294925}, {"type": "node", "id": 1700227374, "lat": 51.5138767, "lon": -0.1284909}, {"type": "node", "id": 1700227383, "lat": 51.5139321, "lon": -0.1284159}, {"type": "node", "id": 1700227384, "lat": 51.5139425, "lon": -0.128615}, {"type": "node", "id": 1700227391, "lat": 51.5140004, "lon": -0.1285426}, {"type": "node", "id": 1700288937, "lat": 51.5129838, "lon": -0.131898}, {"type": "node", "id": 1700288970, "lat": 51.5130765, "lon": -0.1319836}, {"type": "node", "id": 1700288994, "lat": 51.5130981, "lon": -0.1319093}, {"type": "node", "id": 1700289032, "lat": 51.5131861, "lon": -0.1313665}, {"type": "node", "id": 1700289067, "lat": 51.513248, "lon": -0.13142}, {"type": "node", "id": 1700289068, "lat": 51.5132327, "lon": -0.1314659}, {"type": "node", "id": 1700289074, "lat": 51.5132442, "lon": -0.1314755}, {"type": "node", "id": 1700289086, "lat": 51.5132568, "lon": -0.1314327}, {"type": "node", "id": 1700289087, "lat": 51.5132677, "lon": -0.1311586}, {"type": "node", "id": 1700289091, "lat": 51.5132725, "lon": -0.1314446}, {"type": "node", "id": 1700289099, "lat": 51.5132962, "lon": -0.1313614}, {"type": "node", "id": 1700289104, "lat": 51.5133229, "lon": -0.1310076}, {"type": "node", "id": 1700289139, "lat": 51.513394, "lon": -0.1310612}, {"type": "node", "id": 1700289141, "lat": 51.5133463, "lon": -0.1312122}, {"type": "node", "id": 1700289188, "lat": 51.51354, "lon": -0.1298982}, {"type": "node", "id": 1700289191, "lat": 51.5135459, "lon": -0.1299856}, {"type": "node", "id": 1700289226, "lat": 51.5135839, "lon": -0.1298905}, {"type": "node", "id": 1700289229, "lat": 51.5135898, "lon": -0.1299779}, {"type": "node", "id": 1700289235, "lat": 51.513586, "lon": -0.1299216}, {"type": "node", "id": 1700289237, "lat": 51.5136091, "lon": -0.1297947}, {"type": "node", "id": 1700289257, "lat": 51.513621, "lon": -0.1298884}, {"type": "node", "id": 1700289295, "lat": 51.5136368, "lon": -0.1297279}, {"type": "node", "id": 1700289306, "lat": 51.5136607, "lon": -0.1299278}, {"type": "node", "id": 1700289317, "lat": 51.5136678, "lon": -0.1296507}, {"type": "node", "id": 1700289352, "lat": 51.5136934, "lon": -0.1296238}, {"type": "node", "id": 1700289355, "lat": 51.5137014, "lon": -0.1296801}, {"type": "node", "id": 1700289359, "lat": 51.5137029, "lon": -0.1295904}, {"type": "node", "id": 1700289428, "lat": 51.5137121, "lon": -0.1297914}, {"type": "node", "id": 1700289435, "lat": 51.5137161, "lon": -0.1295971}, {"type": "node", "id": 1700289454, "lat": 51.5137333, "lon": -0.1295389}, {"type": "node", "id": 1700289460, "lat": 51.5137428, "lon": -0.1297164}, {"type": "node", "id": 1700289541, "lat": 51.5139093, "lon": -0.1297512}, {"type": "node", "id": 1700289562, "lat": 51.5139208, "lon": -0.1296509}, {"type": "node", "id": 1700436139, "lat": 51.5126475, "lon": -0.1332825}, {"type": "node", "id": 1700436175, "lat": 51.5127116, "lon": -0.1331613}, {"type": "node", "id": 1700436179, "lat": 51.5127304, "lon": -0.1333582}, {"type": "node", "id": 1700436184, "lat": 51.5127353, "lon": -0.1331803}, {"type": "node", "id": 1700436200, "lat": 51.5127881, "lon": -0.1332237}, {"type": "node", "id": 1711432659, "lat": 51.5144202, "lon": -0.1563842}, {"type": "node", "id": 1715953269, "lat": 51.5145775, "lon": -0.1355169}, {"type": "node", "id": 1715953270, "lat": 51.5145933, "lon": -0.1354689}, {"type": "node", "id": 1715953275, "lat": 51.5146037, "lon": -0.1356032}, {"type": "node", "id": 1715953276, "lat": 51.5146203, "lon": -0.1355539}, {"type": "node", "id": 1715953282, "lat": 51.5146452, "lon": -0.1355331}, {"type": "node", "id": 1715953284, "lat": 51.5146648, "lon": -0.1354693}, {"type": "node", "id": 1715953287, "lat": 51.5147059, "lon": -0.1355831}, {"type": "node", "id": 1715953288, "lat": 51.5147257, "lon": -0.1355183}, {"type": "node", "id": 1715953291, "lat": 51.5147316, "lon": -0.1357824}, {"type": "node", "id": 1715953294, "lat": 51.5147793, "lon": -0.135824}, {"type": "node", "id": 1715953328, "lat": 51.5150154, "lon": -0.1359005}, {"type": "node", "id": 1715953330, "lat": 51.515022, "lon": -0.1359325}, {"type": "node", "id": 1715953342, "lat": 51.5150267, "lon": -0.1358635}, {"type": "node", "id": 1715953343, "lat": 51.5150286, "lon": -0.1359108}, {"type": "node", "id": 1715953345, "lat": 51.5150406, "lon": -0.1358744}, {"type": "node", "id": 1715953353, "lat": 51.515084, "lon": -0.1359812}, {"type": "node", "id": 1715953354, "lat": 51.5151017, "lon": -0.1359231}, {"type": "node", "id": 1715953377, "lat": 51.5154048, "lon": -0.1359796}, {"type": "node", "id": 1715977128, "lat": 51.5153897, "lon": -0.1359683}, {"type": "node", "id": 1715977132, "lat": 51.5154006, "lon": -0.1359274}, {"type": "node", "id": 1715977135, "lat": 51.5154359, "lon": -0.1360031}, {"type": "node", "id": 1715977150, "lat": 51.5154814, "lon": -0.1356219}, {"type": "node", "id": 1715977152, "lat": 51.5154881, "lon": -0.1357914}, {"type": "node", "id": 1715977159, "lat": 51.5155249, "lon": -0.1356541}, {"type": "node", "id": 1716125322, "lat": 51.5152759, "lon": -0.1350465}, {"type": "node", "id": 1716125331, "lat": 51.5152937, "lon": -0.1352903}, {"type": "node", "id": 1725253359, "lat": 51.5232904, "lon": -0.1079003}, {"type": "node", "id": 1733573849, "lat": 51.5221822, "lon": -0.1093032}, {"type": "node", "id": 1733573850, "lat": 51.5221826, "lon": -0.1092834}, {"type": "node", "id": 1733573851, "lat": 51.5221841, "lon": -0.1092632}, {"type": "node", "id": 1733573854, "lat": 51.5221877, "lon": -0.1092453}, {"type": "node", "id": 1733573855, "lat": 51.5221902, "lon": -0.1093207}, {"type": "node", "id": 1733914352, "lat": 51.5131285, "lon": -0.1129011}, {"type": "node", "id": 1733914358, "lat": 51.5131694, "lon": -0.1127844}, {"type": "node", "id": 1733914364, "lat": 51.5132332, "lon": -0.1128298}, {"type": "node", "id": 1733914366, "lat": 51.513242, "lon": -0.1130253}, {"type": "node", "id": 1733914376, "lat": 51.5132924, "lon": -0.1128878}, {"type": "node", "id": 1733914541, "lat": 51.5135305, "lon": -0.1115968}, {"type": "node", "id": 1733914549, "lat": 51.5135376, "lon": -0.111556}, {"type": "node", "id": 1733914562, "lat": 51.5135569, "lon": -0.1116489}, {"type": "node", "id": 1733914566, "lat": 51.5135575, "lon": -0.1115658}, {"type": "node", "id": 1733914571, "lat": 51.5135621, "lon": -0.1116116}, {"type": "node", "id": 1733914635, "lat": 51.5136379, "lon": -0.1116885}, {"type": "node", "id": 1733914655, "lat": 51.513651, "lon": -0.1115992}, {"type": "node", "id": 1733914756, "lat": 51.5137866, "lon": -0.1100183}, {"type": "node", "id": 1733914792, "lat": 51.5137922, "lon": -0.1099839}, {"type": "node", "id": 1733914794, "lat": 51.5138046, "lon": -0.1099141}, {"type": "node", "id": 1733914813, "lat": 51.513941, "lon": -0.1100862}, {"type": "node", "id": 1733914816, "lat": 51.5139627, "lon": -0.1099705}, {"type": "node", "id": 1748047833, "lat": 51.5229915, "lon": -0.1055984}, {"type": "node", "id": 1748047837, "lat": 51.523017, "lon": -0.105546}, {"type": "node", "id": 1748047850, "lat": 51.5231043, "lon": -0.1057247}, {"type": "node", "id": 1748047856, "lat": 51.5230955, "lon": -0.1056394}, {"type": "node", "id": 1750188834, "lat": 51.533249, "lon": -0.1095404}, {"type": "node", "id": 1750188835, "lat": 51.5332698, "lon": -0.1095429}, {"type": "node", "id": 1750846722, "lat": 51.5314792, "lon": -0.1060568}, {"type": "node", "id": 1750846723, "lat": 51.5315033, "lon": -0.1058317}, {"type": "node", "id": 1782989443, "lat": 51.5384967, "lon": -0.1431313}, {"type": "node", "id": 1830276646, "lat": 51.5179566, "lon": -0.1113548}, {"type": "node", "id": 1830276652, "lat": 51.5180285, "lon": -0.111446}, {"type": "node", "id": 1830276657, "lat": 51.5181682, "lon": -0.1129462}, {"type": "node", "id": 1830276658, "lat": 51.5181823, "lon": -0.1129807}, {"type": "node", "id": 1832227872, "lat": 51.5171313, "lon": -0.1073528, "tags": {"addr:city": "London", "addr:housenumber": "1", "addr:postcode": "EC1N 2HB", "addr:street": "Holborn Circus", "amenity": "cafe", "contact:website": "http://www.eatsiesholborn.co.uk/", "fhrs:id": "1171512", "indoor_seating": "yes", "name": "Nosh Cafe", "not:addr:postcode": "EC1N 2HA", "outdoor_seating": "yes"}}, {"type": "node", "id": 1832665984, "lat": 51.5180314, "lon": -0.113109}, {"type": "node", "id": 1832666030, "lat": 51.518022, "lon": -0.1113025}, {"type": "node", "id": 1834214583, "lat": 51.513674, "lon": -0.1271011}, {"type": "node", "id": 1834214591, "lat": 51.5136935, "lon": -0.1271304}, {"type": "node", "id": 1843386037, "lat": 51.5123188, "lon": -0.121732}, {"type": "node", "id": 1844622463, "lat": 51.515745, "lon": -0.1122808, "tags": {"amenity": "cafe", "name": "Onkis"}}, {"type": "node", "id": 1844622465, "lat": 51.5158752, "lon": -0.112093, "tags": {"amenity": "cafe", "name": "Coffee Etna"}}, {"type": "node", "id": 1857940140, "lat": 51.5142865, "lon": -0.1266841}, {"type": "node", "id": 1857940142, "lat": 51.514298, "lon": -0.1268515}, {"type": "node", "id": 1857940188, "lat": 51.5143324, "lon": -0.126303}, {"type": "node", "id": 1857940195, "lat": 51.5143358, "lon": -0.1266794}, {"type": "node", "id": 1857940197, "lat": 51.5143432, "lon": -0.1263162}, {"type": "node", "id": 1857940198, "lat": 51.5143471, "lon": -0.1268435}, {"type": "node", "id": 1857940203, "lat": 51.5143681, "lon": -0.1262316}, {"type": "node", "id": 1857940240, "lat": 51.5143845, "lon": -0.1263654}, {"type": "node", "id": 1857940246, "lat": 51.5144187, "lon": -0.1262976}, {"type": "node", "id": 1857940254, "lat": 51.5144593, "lon": -0.1263116}, {"type": "node", "id": 1857940285, "lat": 51.5145152, "lon": -0.1262141}, {"type": "node", "id": 1857940500, "lat": 51.514881, "lon": -0.1266369}, {"type": "node", "id": 1857940516, "lat": 51.5149003, "lon": -0.1266452}, {"type": "node", "id": 1857940528, "lat": 51.5149418, "lon": -0.1265615}, {"type": "node", "id": 1857957586, "lat": 51.5152031, "lon": -0.1265457}, {"type": "node", "id": 1857957588, "lat": 51.5152107, "lon": -0.1266848}, {"type": "node", "id": 1857957589, "lat": 51.5152139, "lon": -0.1265439}, {"type": "node", "id": 1913487611, "lat": 51.5301995, "lon": -0.1277044, "tags": {"amenity": "cafe", "check_date": "2023-05-03", "cuisine": "coffee_shop", "internet_access": "wlan", "name": "British Library cafe", "payment:mastercard": "yes", "payment:visa": "yes", "toilets": "yes", "toilets:wheelchair": "yes", "wheelchair": "yes"}}, {"type": "node", "id": 1937391834, "lat": 51.5157794, "lon": -0.1284165}, {"type": "node", "id": 1937391867, "lat": 51.5158465, "lon": -0.1281729}, {"type": "node", "id": 1937391976, "lat": 51.517046, "lon": -0.1238566}, {"type": "node", "id": 1937420246, "lat": 51.5171664, "lon": -0.1275405}, {"type": "node", "id": 1937420251, "lat": 51.5172426, "lon": -0.1273144}, {"type": "node", "id": 1944332405, "lat": 51.5089887, "lon": -0.1365633}, {"type": "node", "id": 1948901222, "lat": 51.5142188, "lon": -0.1340816}, {"type": "node", "id": 1948979526, "lat": 51.5142088, "lon": -0.1331036}, {"type": "node", "id": 1962952854, "lat": 51.5134427, "lon": -0.1179482, "tags": {"addr:city": "London", "addr:housenumber": "7B", "addr:postcode": "WC2B 6XG", "addr:street": "Kingsway", "amenity": "cafe", "brand": "Caff\u00e8 Nero", "brand:wikidata": "Q675808", "brand:wikipedia": "en:Caff\u00e8 Nero", "check_date": "2023-02-25", "contact:website": "https://caffenero.com/uk/store/kingsway-aldwych-757/", "cuisine": "coffee_shop", "name": "Caff\u00e8 Nero", "opening_hours": "Mo-Fr 07:00-20:00; Sa 08:30-19:00; Su 09:00-17:30", "takeaway": "yes"}}, {"type": "node", "id": 2019026804, "lat": 51.5187274, "lon": -0.1170491}, {"type": "node", "id": 2019026806, "lat": 51.5187372, "lon": -0.1170086}, {"type": "node", "id": 2019026808, "lat": 51.5187444, "lon": -0.1170131}, {"type": "node", "id": 2019026809, "lat": 51.5187512, "lon": -0.1169848}, {"type": "node", "id": 2019026811, "lat": 51.5188067, "lon": -0.1170987}, {"type": "node", "id": 2019026812, "lat": 51.5188234, "lon": -0.1170299}, {"type": "node", "id": 2060167031, "lat": 51.5411137, "lon": -0.1452538, "tags": {"addr:city": "London", "addr:housenumber": "289", "addr:postcode": "NW1 7BX", "addr:street": "Camden High Street", "amenity": "cafe", "brand": "Starbucks", "brand:wikidata": "Q37158", "brand:wikipedia": "en:Starbucks", "cuisine": "coffee_shop", "fhrs:id": "426526", "name": "Starbucks", "official_name": "Starbucks Coffee", "takeaway": "yes", "wheelchair": "yes"}}, {"type": "node", "id": 2069574550, "lat": 51.5105916, "lon": -0.1246453}, {"type": "node", "id": 2069620440, "lat": 51.5120538, "lon": -0.1202136}, {"type": "node", "id": 2069620442, "lat": 51.5120704, "lon": -0.1201785}, {"type": "node", "id": 2069620443, "lat": 51.5120723, "lon": -0.1202567}, {"type": "node", "id": 2069620448, "lat": 51.5120957, "lon": -0.1202047}, {"type": "node", "id": 2069620505, "lat": 51.5125787, "lon": -0.1209821}, {"type": "node", "id": 2069620511, "lat": 51.5125908, "lon": -0.1208674}, {"type": "node", "id": 2069620512, "lat": 51.5126076, "lon": -0.1209133}, {"type": "node", "id": 2069620516, "lat": 51.5126149, "lon": -0.1208976}, {"type": "node", "id": 2102786811, "lat": 51.5119755, "lon": -0.1335372, "tags": {"addr:city": "London", "addr:housenumber": "49", "addr:street": "Rupert Street", "amenity": "cafe", "cuisine": "bubble_tea", "fhrs:confidence_management": "5", "fhrs:hygiene": "5", "fhrs:id": "414114", "fhrs:local_authority_id": "01532/0049/0/000", "fhrs:rating": "5", "fhrs:structural": "5", "name": "Bubbleology", "opening_hours:signed": "no", "outdoor_seating": "no", "phone": "+44 20 7494 4231", "postal_code": "W1D 7PF", "website": "https://www.bubbleology.co.uk/", "wheelchair": "no", "wikimedia_commons": "File:Rupert_Street_1.jpg"}}, {"type": "node", "id": 2122653029, "lat": 51.5084102, "lon": -0.1084814, "tags": {"addr:city": "London", "addr:postcode": "SE1 9PH", "amenity": "cafe", "brand": "Caff\u00e8 Nero", "brand:wikidata": "Q675808", "brand:wikipedia": "en:Caff\u00e8 Nero", "contact:website": "https://caffenero.com/uk/store/oxo-tower-557/", "cuisine": "coffee_shop", "fhrs:id": "569201", "name": "Caff\u00e8 Nero", "opening_hours": "Mo-Th 06:30-22:00, Fr 06:30-22:30, Sa 07:00-22:30, Su 07:30-22:00", "outdoor_seating": "yes", "takeaway": "yes", "wheelchair": "yes"}}, {"type": "node", "id": 2131592326, "lat": 51.5229178, "lon": -0.1068502, "tags": {"amenity": "cafe", "name": "Twenty Two to Twenty Six"}}, {"type": "node", "id": 2153822337, "lat": 51.5084427, "lon": -0.1211794}, {"type": "node", "id": 2153822339, "lat": 51.5083119, "lon": -0.1211951}, {"type": "node", "id": 2153822348, "lat": 51.5084114, "lon": -0.1210973}, {"type": "node", "id": 2153822353, "lat": 51.5083431, "lon": -0.1212772}, {"type": "node", "id": 2191480845, "lat": 51.5144349, "lon": -0.1563976}, {"type": "node", "id": 2191480846, "lat": 51.5144402, "lon": -0.1564244}, {"type": "node", "id": 2192615709, "lat": 51.5326455, "lon": -0.1068955, "tags": {"addr:city": "London", "addr:floor": "0", "addr:housenumber": "1-9", "addr:postcode": "N1 9PD", "addr:street": "White Lion Street", "addr:suburb": "Islington", "amenity": "cafe", "fhrs:id": "417800", "name": "Bill's Cafe Restaurant Store", "source:addr": "FHRS Open Data"}}, {"type": "node", "id": 2205183327, "lat": 51.5097886, "lon": -0.1369131}, {"type": "node", "id": 2205183331, "lat": 51.5097098, "lon": -0.1369487}, {"type": "node", "id": 2205183348, "lat": 51.5094515, "lon": -0.1370866}, {"type": "node", "id": 2205183385, "lat": 51.5091744, "lon": -0.1368536}, {"type": "node", "id": 2205189076, "lat": 51.5100843, "lon": -0.1362643}, {"type": "node", "id": 2214948500, "lat": 51.507778, "lon": -0.1402544}, {"type": "node", "id": 2214981698, "lat": 51.5372304, "lon": -0.1451921}, {"type": "node", "id": 2214981700, "lat": 51.5372846, "lon": -0.1454078}, {"type": "node", "id": 2214981703, "lat": 51.5373164, "lon": -0.1453669}, {"type": "node", "id": 2264792434, "lat": 51.5251084, "lon": -0.1350618}, {"type": "node", "id": 2271434230, "lat": 51.5146379, "lon": -0.1503311}, {"type": "node", "id": 2271434234, "lat": 51.5146587, "lon": -0.150214}, {"type": "node", "id": 2271434236, "lat": 51.5146898, "lon": -0.1503561}, {"type": "node", "id": 2271434238, "lat": 51.5147114, "lon": -0.1502372}, {"type": "node", "id": 2271451414, "lat": 51.5158992, "lon": -0.1504366}, {"type": "node", "id": 2271451421, "lat": 51.515928, "lon": -0.1503508}, {"type": "node", "id": 2271451452, "lat": 51.5159931, "lon": -0.15048}, {"type": "node", "id": 2271451454, "lat": 51.5160085, "lon": -0.1503907}, {"type": "node", "id": 2271476267, "lat": 51.5149048, "lon": -0.1516128}, {"type": "node", "id": 2271476276, "lat": 51.515049, "lon": -0.1506994}, {"type": "node", "id": 2271476290, "lat": 51.5152803, "lon": -0.1518249}, {"type": "node", "id": 2271476291, "lat": 51.5153087, "lon": -0.1516657}, {"type": "node", "id": 2271476292, "lat": 51.5153313, "lon": -0.1515375}, {"type": "node", "id": 2271476293, "lat": 51.5153312, "lon": -0.1518488}, {"type": "node", "id": 2271476294, "lat": 51.5153364, "lon": -0.1516781}, {"type": "node", "id": 2271476296, "lat": 51.5153443, "lon": -0.1516328}, {"type": "node", "id": 2271476297, "lat": 51.515353, "lon": -0.1517287}, {"type": "node", "id": 2271476298, "lat": 51.5153686, "lon": -0.151644}, {"type": "node", "id": 2271476303, "lat": 51.5153833, "lon": -0.1515613}, {"type": "node", "id": 2271773564, "lat": 51.5092724, "lon": -0.1369427}, {"type": "node", "id": 2271773571, "lat": 51.509611, "lon": -0.1368885}, {"type": "node", "id": 2272650936, "lat": 51.5153166, "lon": -0.1516202}, {"type": "node", "id": 2272747726, "lat": 51.5149013, "lon": -0.1516009}, {"type": "node", "id": 2272747728, "lat": 51.5149026, "lon": -0.1515878}, {"type": "node", "id": 2272747730, "lat": 51.5149131, "lon": -0.1516212}, {"type": "node", "id": 2272747732, "lat": 51.5149255, "lon": -0.1516287}, {"type": "node", "id": 2272747734, "lat": 51.5149123, "lon": -0.1515242}, {"type": "node", "id": 2272747735, "lat": 51.5149885, "lon": -0.1516532}, {"type": "node", "id": 2272747737, "lat": 51.515003, "lon": -0.15156}, {"type": "node", "id": 2272756865, "lat": 51.5150361, "lon": -0.150778}, {"type": "node", "id": 2272756866, "lat": 51.515079, "lon": -0.1507959}, {"type": "node", "id": 2272756867, "lat": 51.5150923, "lon": -0.1507188}, {"type": "node", "id": 2272802073, "lat": 51.5149281, "lon": -0.1501009}, {"type": "node", "id": 2272899207, "lat": 51.5153231, "lon": -0.1506512}, {"type": "node", "id": 2272899208, "lat": 51.5153472, "lon": -0.1505132}, {"type": "node", "id": 2273728573, "lat": 51.5127366, "lon": -0.132205, "tags": {"amenity": "cafe", "name": "Biju Bubble Teas"}}, {"type": "node", "id": 2293833773, "lat": 51.5142719, "lon": -0.1050783}, {"type": "node", "id": 2293833774, "lat": 51.5142725, "lon": -0.1051079, "tags": {"entrance": "main", "source": "photograph"}}, {"type": "node", "id": 2293833778, "lat": 51.5142731, "lon": -0.1051375}, {"type": "node", "id": 2293833789, "lat": 51.5143329, "lon": -0.1050782}, {"type": "node", "id": 2293833790, "lat": 51.5143328, "lon": -0.1051363}, {"type": "node", "id": 2305425761, "lat": 51.514426, "lon": -0.1608665, "tags": {"addr:city": "London", "addr:housenumber": "60", "addr:postcode": "W1H 7JH", "addr:street": "Seymour Street", "amenity": "cafe", "fhrs:confidence_management": "10", "fhrs:hygiene": "10", "fhrs:id": "413444", "fhrs:local_authority_id": "01189/0060/0/000", "fhrs:rating": "3", "fhrs:structural": "5", "name": "The Borough Barista", "source:addr": "FSA Food Hygiene Ratings Database", "source:postcode": "FSA Food Hygiene Ratings Database", "website": "http://www.boroughbarista.com/"}}, {"type": "node", "id": 2340985988, "lat": 51.5333425, "lon": -0.1376625}, {"type": "node", "id": 2340985993, "lat": 51.5333892, "lon": -0.137552}, {"type": "node", "id": 2340986262, "lat": 51.5343511, "lon": -0.1387429}, {"type": "node", "id": 2340986267, "lat": 51.5343543, "lon": -0.1386648}, {"type": "node", "id": 2340986307, "lat": 51.534442, "lon": -0.1387511}, {"type": "node", "id": 2340986311, "lat": 51.5344461, "lon": -0.1386736}, {"type": "node", "id": 2341115968, "lat": 51.5068568, "lon": -0.1518667}, {"type": "node", "id": 2342369954, "lat": 51.5356228, "lon": -0.1393483}, {"type": "node", "id": 2342369958, "lat": 51.5356466, "lon": -0.1392858}, {"type": "node", "id": 2342369964, "lat": 51.5356654, "lon": -0.1393891}, {"type": "node", "id": 2342369969, "lat": 51.5356846, "lon": -0.1391859}, {"type": "node", "id": 2342369971, "lat": 51.5356886, "lon": -0.1393276}, {"type": "node", "id": 2342369973, "lat": 51.535705, "lon": -0.139428}, {"type": "node", "id": 2342369981, "lat": 51.5357267, "lon": -0.1392267}, {"type": "node", "id": 2342369982, "lat": 51.535728, "lon": -0.1393661}, {"type": "node", "id": 2342369984, "lat": 51.5357484, "lon": -0.13947}, {"type": "node", "id": 2342369987, "lat": 51.5357661, "lon": -0.1392652}, {"type": "node", "id": 2342369990, "lat": 51.5357712, "lon": -0.1394083}, {"type": "node", "id": 2342369999, "lat": 51.5358093, "lon": -0.1393074}, {"type": "node", "id": 2342370000, "lat": 51.5358144, "lon": -0.139294}, {"type": "node", "id": 2342370010, "lat": 51.5358937, "lon": -0.1393386}, {"type": "node", "id": 2344320159, "lat": 51.5344584, "lon": -0.1395246}, {"type": "node", "id": 2344320162, "lat": 51.5344703, "lon": -0.1394521}, {"type": "node", "id": 2344320170, "lat": 51.5345412, "lon": -0.1394807},